Business ID,insertedAtTimestamp,Name,Cuisine,Rating,Number of Reviews,Address,Zip Code,Latitude,Longitude
Business ID,insertedAtTimestamp,Name,Cuisine,Rating,Number of Reviews,Address,Zip Code,Latitude,Longitude
hSpZSqElyjHTfE4lQJ97Cg,2022-10-10 21:00:33.070412,Mareluna,italian,5,40,137 Sullivan St,10012,40.72686027756351,-74.00191202883569
E48WbksxAk19a8vjJRVIVQ,2022-10-10 21:00:33.071934,Ramerino Italian Prime,italian,5,4,16 E 39th St,10016,40.75107,-73.98135
hkooeEkd3oPsLD6JJrYpjA,2022-10-10 21:00:33.071964,Café Luce,italian,4.5,66,235 E 53rd St,10022,40.757323,-73.967928
8oO6j7AlnAbMSJs9Oj9GIw,2022-10-10 21:00:33.072120,Osteria Delbianco,italian,4.5,143,22 East 49th St,10017,40.7573689002,-73.9764462233
OWNmOq-TAsHjGcYdCVclSw,2022-10-10 21:00:33.072148,Osteria La Baia,italian,4.5,39,129 W 52nd St,10019,40.76189587672743,-73.9806749
R3gSQGB3aEmVpwbKIgOPqg,2022-10-10 21:00:33.072170,Fabio Cucina Italiana,italian,4.5,364,214 E 52nd St,10022,40.7565655024,-73.9693792051
26emJlm1YMFyOCezfgVk4g,2022-10-10 21:00:33.072197,Da Raffaele,italian,4.5,206,883 First Ave,10022,40.7535386913133,-73.9666010811925
h37t9rA06Sr4EetJjKrfzw,2022-10-10 21:00:33.072219,Don Angie,italian,4.5,597,103 Greenwich Ave,10014,40.73778,-74.00197
GjEE8vvjqb7eeHA3BGNxAw,2022-10-10 21:00:33.072239,Barolo East,italian,4.5,237,214 E 49th St,10017,40.75481,-73.97059
Dng_LID2JNnc6M6A1FB19Q,2022-10-10 21:00:33.072259,Come Prima Ristorante,italian,4.5,99,903 Madison Ave,10021,40.7721165011105,-73.965037390213
VmdyRRMtUXOWV7F7w0ImwQ,2022-10-10 21:00:33.072281,Piccola Cucina Uptown,italian,4.5,232,106 E 60th St,10022,40.763174,-73.969046
fFIQ8Rx4x1Z34kFJcmlVzQ,2022-10-10 21:00:33.072301,Cacio E Pepe,italian,4.5,44,1479 York Ave,10075,40.77090864674996,-73.95098168604862
vVVmHacu2YAxKfpIjhfd1g,2022-10-10 21:00:33.072347,Norma,italian,4.5,560,438 3rd Ave,10016,40.743553,-73.980026
hzPBADaUBQEL30MGrvKsww,2022-10-10 21:00:33.072366,Il Tinello Ristorante Italiano,italian,4.5,305,16 W 56th St,10019,40.76256,-73.97566
cl97uG2_QtiMBah-_s9w7g,2022-10-10 21:00:33.072386,Il Divo,italian,4.5,93,1347 2nd Ave At E 71st St,10021,40.76816,-73.959204
16ZnHpuaaBt92XWeJHCC5A,2022-10-10 21:00:33.072406,Olio e Più,italian,4.5,3647,3 Greenwich Ave,10014,40.733798036104304,-73.99977392649927
Fit_iIDn__NPVZpVlKFBFQ,2022-10-10 21:00:33.072430,Osteria 106,italian,4.5,189,53 W 106 St,10025,40.79894,-73.96174
RXCCofQw1EjTcSN0ZeXfRA,2022-10-10 21:00:33.072449,Risotteria Melotti NYC,italian,4.5,369,309 E 5th St,10003,40.726673363853,-73.9880919456482
rp8S7scxOkVVeG7dNneMGQ,2022-10-10 21:00:33.072471,L'Artusi,italian,4.5,2147,228 W 10th St,10014,40.73372,-74.00513
LkV96_buOU_n0br4SBO57w,2022-10-10 21:00:33.072490,Ci Siamo,italian,4.5,169,440 West 33rd St,10001,40.75240549384363,-73.9982864846782
qBGKigOGn_flCx1apxPzlA,2022-10-10 21:00:33.072512,Piccola Cucina Osteria,italian,4.5,701,196 Spring St,10012,40.72506,-74.00322
7cjT33LfYSk7vrRdEaSr4w,2022-10-10 21:00:33.072531,Angeletto Restaurant,italian,4.5,280,890 2nd Ave,10017,40.753188,-73.969365
WG639VkTjmK5dzydd1BBJA,2022-10-10 21:00:33.072551,Rubirosa,italian,4.5,2780,235 Mulberry St,10012,40.722766,-73.996233
JLpEKUYAtzBRQwsUL3RPIA,2022-10-10 21:00:33.072571,Il Corso,italian,4.5,404,54 W 55th St,10019,40.762441,-73.977206
HpxYBu1ARzOGvuUcLJe54g,2022-10-10 21:00:33.072590,Giardino 54,italian,4.5,171,402 W 54th St,10019,40.7661,-73.98763
hdiuRS9sVZSMReZm4oV5SA,2022-10-10 21:00:33.072610,Da Andrea,italian,4.5,1591,35 W 13th St,10011,40.736218,-73.99597
z7H9ApIGopnDnQaglnPTzg,2022-10-10 21:00:33.072629,Allora Ristorante,italian,4.5,716,145 E 47th St,10017,40.75433,-73.97277
aLM9irVFlNoVlS9dGuW_Lg,2022-10-10 21:00:33.072648,Amata,italian,4,90,209 E 56th St,10022,40.759426,-73.967063
TzVVPWK_4dhdSEpNqZwIhQ,2022-10-10 21:00:33.072670,Toscana 49,italian,4,311,143 East 49 St,10017,40.7556957079225,-73.9717184007168
5TX0X8w5ssIACU_pnBEq6g,2022-10-10 21:00:33.072707,Tony's Di Napoli,italian,4,2383,147 W 43rd St,10036,40.75641,-73.98547
V-FCEicobl5Su-R7EVJQNA,2022-10-10 21:00:33.072727,La Lanterna Di Vittorio,italian,4,1599,129 MacDougal St,10012,40.73069,-74.00015
3qIISjUYn1tbqHXi7nCLXg,2022-10-10 21:00:33.072746,Sofia Wine Bar,italian,4,722,242 E 50th St,10022,40.75502,-73.96913
raqwXUBlnc0e8c7CYmxEJQ,2022-10-10 21:00:33.072765,Scarpetta,italian,4,2158,88 Madison Ave,10016,40.744509,-73.9856
DoSU8IPq-Py_YV3kYmXPfQ,2022-10-10 21:00:33.072785,Trattoria Trecolori,italian,4,2555,254 West 47th St,10036,40.759876,-73.986767
OCTiJwvjoK81WoDwsTkFvA,2022-10-10 21:00:33.072804,Paesano of Mulberry Street,italian,4,1247,136 Mulberry St,10013,40.718554,-73.997447
xsQTIeq-WLkp4ParkTQpMQ,2022-10-10 21:00:33.072824,PizzArte,italian,4,1216,69 W 55th St,10019,40.7629335072372,-73.9776668697596
h4VCnZ2aZ33mdenS_ZI7jQ,2022-10-10 21:00:33.072845,Mama Mia 44 SW,italian,4,786,621 9th Ave,10036,40.759761,-73.992065
faukkggAc_tuJ4THYlf4fg,2022-10-10 21:00:33.072864,La Masseria,italian,4,658,235 W 48th St,10036,40.760868632784,-73.986348802868
rpVX-o82EEOX8ZDnM28a_Q,2022-10-10 21:00:33.072885,Bistango,italian,4,330,145 E 50th St,10022,40.75628,-73.97144
V3USzFEGhuoXez4G2Rk11A,2022-10-10 21:00:33.072904,Tavola,italian,4,1172,488 9th Ave,10018,40.755403,-73.994516
OAqsZMbjv66nOMqlimnYuQ,2022-10-10 21:00:33.072923,Uva,italian,4,2629,1486 2nd Ave,10075,40.77219299003591,-73.95561517222123
MOwB9YYd-Ko6nVgSB-ltQw,2022-10-10 21:00:33.072944,Briciola,italian,4,959,370 W 51st St,10019,40.7637997047278,-73.9880919456482
a4WZUTKn90dOkeY38JHNjQ,2022-10-10 21:00:33.072965,Aurora,italian,4,774,70 Grand St,11249,40.715621,-73.964757
NAlOPUbFQVE0bUu8_wmBLQ,2022-10-10 21:00:33.072984,Rezdôra,italian,4,499,27 E 20th St,10003,40.73901,-73.9891
l7OsDvMOO3ji3fg0nT0QzA,2022-10-10 21:00:33.073003,Tony's Di Napoli,italian,4,797,1081 3rd Ave,10065,40.764385574147596,-73.96426247506157
7_hGsGEkHrjgAiYVjrCFnw,2022-10-10 21:00:33.073025,Carbone,italian,4,1467,181 Thompson St,10012,40.728,-74.0001497
LXdblKc5g1Dp17xiV-Am1w,2022-10-10 21:00:33.073045,Trattoria Dell'Arte,italian,4,1118,900 7th Ave,10019,40.76545990643915,-73.98053136970677
22nKUyCIbpnzR6R3_g1ptQ,2022-10-10 21:00:33.073066,Carmine's Italian Restaurant - Times Square,italian,4,4221,200 W 44th St,10036,40.75749848725768,-73.98665333142026
dc3hkLkAqCSxDWQzrx-g9A,2022-10-10 21:00:33.073089,Quality Italian,italian,4,1270,57 W 57th St,10019,40.7644044527436,-73.9767805051616
vjubSxmdG_HoBBgd39geBw,2022-10-10 21:00:33.073110,Nino's 46,italian,4,1295,39 W 46th St,10036,40.7569046125342,-73.980516
Business ID,insertedAtTimestamp,Name,Cuisine,Rating,Number of Reviews,Address,Zip Code,Latitude,Longitude
IAbOg5Kd5AynOcbI8vGTwQ,2022-10-10 21:00:34.323254,Aperitivo,italian,4.5,44,14 E 60th St,10022,40.76431314475945,-73.9717568
K9Ur20N51Li3sAvaV9-6Ng,2022-10-10 21:00:34.323301,Casa Limone,italian,4.5,72,20 East 49th St,10017,40.7573268,-73.97666174194207
15k7iqFbhf4h8L01yggLqg,2022-10-10 21:00:34.323319,Song E Napule,italian,4.5,638,146 W Houston St,10012,40.72813,-74.00188
b6jOwyX4iaagw8YjXqq1sA,2022-10-10 21:00:34.323334,Antonio's Trattoria,italian,4.5,961,2370 Belmont Ave,10458,40.854131,-73.886601
TqNd-LKHuoYo1_mYwqiBFQ,2022-10-10 21:00:34.323348,Nonna Dora’s,italian,4.5,41,606 2nd Ave,10016,40.74440176159688,-73.97634764480043
4RhrQpbhjDmOyXT3qz7v2g,2022-10-10 21:00:34.323365,Osteria Carlina,italian,4.5,66,455 Hudson St,10014,40.731409,-74.006984
zDujEq9qZk13nBcG2PH4tA,2022-10-10 21:00:34.323379,Il Falco,italian,4.5,333,21-50 44th Dr,11101,40.7476595714373,-73.9455319123659
abZ-mEvF6Tj4hfyIg0lKwQ,2022-10-10 21:00:34.323394,Vite Vinosteria,italian,4.5,668,31-05 34th St,11106,40.7629734277725,-73.92119564116
ifIfq2EwEohCgoKnG68_LA,2022-10-10 21:00:34.323409,Villa Berulia,italian,4.5,185,107 E 34th St,10016,40.7467827,-73.9806507
FRp1NwIyp6tkDU986cJkXQ,2022-10-10 21:00:34.323423,Piccola Cucina Estiatorio,italian,4.5,223,75 Thompson St,10012,40.7246,-74.0029799
KXhxtA_JDkCrujeyXvqsgQ,2022-10-10 21:00:34.323437,Canto,italian,4.5,98,117 Perry St,10014,40.73512,-74.00671
MeUq9lombxM9alxs64tejQ,2022-10-10 21:00:34.323451,Pepolino Restaurant,italian,4,603,281 W Broadway,10013,40.720756,-74.004885
9iC39Z1YjZKbrrCANgzBXg,2022-10-10 21:00:34.323465,Sergimmo Salumeria,italian,4,713,456 9th Ave,10018,40.754296,-73.995498
NGyFpNCrzqEG3B0Z0drKfw,2022-10-10 21:00:34.323478,Amarone Scarlatto,italian,4,40,686 Ninth Ave West 47 Street,10036,40.76171494384402,-73.9899636
q3_FgDWWuXcVGiNuo_OPBQ,2022-10-10 21:00:34.323492,Fiaschetteria Pistoia,italian,4,218,647 E 11th St,10009,40.72666,-73.9773
FNxOWxts63oDRKwy9Pbfzw,2022-10-10 21:00:34.323505,Tarallucci E Vino - Nomad,italian,4,193,44 E 28th St,10016,40.74345604900017,-73.98470300895319
zg9Jrtx9rqTXeaqufSOxHQ,2022-10-10 21:00:34.323519,Masseria dei Vini,italian,4,506,887 9th Ave,10019,40.7684,-73.98558
Zp-K3ztVTzR-LrWwl_CBgA,2022-10-10 21:00:34.323532,La Pecora Bianca,italian,4,124,20 W 40th St,10018,40.7525275894982,-73.9829860255122
H_KyiRhwho8rdlw_R93_0Q,2022-10-10 21:00:34.323546,Marea,italian,4,2282,240 Central Park S,10019,40.7674213694566,-73.9810554368179
kIm0oeOaVfC9-2flLPVklA,2022-10-10 21:00:34.323559,Patrizia's Pizza and Pasta,italian,4,731,462-466 2nd Ave,10016,40.7398415,-73.9792862
32VbG_XgkZIuye0PV-BxaA,2022-10-10 21:00:34.323572,Zero Otto Nove,italian,4,511,15 W 21st St,10010,40.7407551035259,-73.9914887388588
vjj3MMPkULJUCv8xf3XRiA,2022-10-10 21:00:34.323586,San Matteo Takeaway,italian,4,164,1731 2nd Ave,10128,40.7801684,-73.9502899
vbGqzhH_exG5HOG1I23kvg,2022-10-10 21:00:34.323599,Park Side Restaurant,italian,4,850,107-01 Corona Ave,11368,40.743843,-73.856118
0axnkZlDiQcJVc06DDXxGQ,2022-10-10 21:00:34.323612,Ristorante Il Melograno,italian,4,364,501 W 51st St,10019,40.7654289685161,-73.9914178848267
rZ9OFoSqy8u4WECfh--ylg,2022-10-10 21:00:34.323626,Marta,italian,4,958,29 E 29th St,10016,40.7445882,-73.9847936
UVQ1GxmhlDVDM2acLexJ7A,2022-10-10 21:00:34.323638,Roberto's II Ristorante,italian,4,104,936 River Rd,07020,40.826943,-73.973692
vXYFa2qzppkGiOiVPrLwDQ,2022-10-10 21:00:34.323651,Don Peppe,italian,4,647,135-58 Lefferts Blvd,11420,40.6689814908178,-73.8216334221041
wV2YuZKjk5VhZz3I27xtsA,2022-10-10 21:00:34.323664,Monterey,italian,5,1,37 E 50th St,10022,40.75767029068569,-73.97455063884706
gkoAJruMnKVuoKVqorgFCA,2022-10-10 21:00:34.323678,TROVO NYC Thin Crust Pizza,italian,5,1,906 3rd Ave,10022,40.7589,-73.96875
yB4ziqFM_7V8JxJas7CHfA,2022-10-10 21:00:34.323692,Ulivo,italian,4,353,4 W 28th St,10001,40.7447371960713,-73.9880339428782
yQ7K4uFnxXxpBVbnOSR8kA,2022-10-10 21:00:34.323705,Polpette 71,italian,4,223,71 West 71st St,10023,40.77668,-73.97888
LdWyeeV8DuYINKVTghFwrg,2022-10-10 21:00:34.323717,Canaletto Restaurant,italian,4,74,208 E 60th St,10022,40.76174,-73.96569
yZJbealagfujEkgesAl2hA,2022-10-10 21:00:34.323730,Lupa,italian,4,1685,170 Thompson St,10012,40.7276,-74.000045
AUifp6IDKzmorCM6vY2fug,2022-10-10 21:00:34.323742,Pepe Giallo,italian,4,735,195 10th Ave,10011,40.7468940064083,-74.0049896784992
C3OlQ_y5LcgboyaKlpETYA,2022-10-10 21:00:34.323756,Trattoria Casa Di Isacco,italian,4,357,536 9th Ave,10018,40.75686,-73.99356
5pRxCYQppSq0czjFDN9X3Q,2022-10-10 21:00:34.323768,Campagnola Restaurant,italian,4,303,1382 1st Ave,10021,40.768817,-73.954833
Q1_UvNyONsaVS_VC1mD9Dw,2022-10-10 21:00:34.323781,Osteria Cotta,italian,4,1013,513 Columbus Ave,10024,40.78554,-73.97263
HiNUBUR1hFwScd_OvVLQAg,2022-10-10 21:00:34.323793,La Pecora Bianca,italian,4,921,1133 Broadway,10010,40.74358,-73.9892
aJJlY5xvqS180wtRIHEWqA,2022-10-10 21:00:34.323805,Cotenna,italian,4,449,21 Bedford St,10014,40.72903,-74.00357
lP4ynyBoeFPywLg78XkMmw,2022-10-10 21:00:34.323817,Cibo e Vino,italian,4,390,2418 Broadway,10024,40.790001374828734,-73.97485339555206
4ixWiPyYysS2i8LAg4qzrQ,2022-10-10 21:00:34.323831,La Villetta,italian,4,101,398 E 52nd St,10022,40.7549171,-73.9650879
goqTQ4tOD-asC_ZJBW9l7w,2022-10-10 21:00:34.323844,Patsy's Italian Restaurant,italian,4,1045,236 W 56th St,10019,40.76553,-73.98274
o2SAcKbfOMkA71xUfyee6Q,2022-10-10 21:00:34.323856,Rossini's,italian,4,251,108 E 38th St,10016,40.74921,-73.97883
d5ya04K-2A_hI3Xzqe1HeA,2022-10-10 21:00:34.323869,Caffe Buon Gusto,italian,4,634,236 E 77th St,10075,40.77249,-73.95713
tJxAlyeT5PRbUIyJ2wsv-A,2022-10-10 21:00:34.323881,Bamonte's,italian,4,405,32 Withers St,11211,40.71666591260819,-73.95125357171182
a0IET3_yCFcO36OqGSsisg,2022-10-10 21:00:34.323894,Eataly NYC Flatiron,italian,4,5937,200 5th Ave,10010,40.74200824886595,-73.98993910744127
pk89jzL1RsE9U0thf_z6tw,2022-10-10 21:00:34.323908,Locanda Verde,italian,4,1786,377 Greenwich St,10013,40.7198601300801,-74.010039072422
Vs8kQ4R381y27AH018gLpg,2022-10-10 21:00:34.323922,Supper,italian,4,1437,156 E 2nd St,10009,40.72290786539601,-73.98520720537888
jnHbdsqlTKlPcmJ8BCP9-g,2022-10-10 21:00:34.323936,Via Carota,italian,4,789,51 Grove St,10014,40.733148231901204,-74.00366777251583
XfOa_KyrV7JSFJMOKckGMg,2022-10-10 21:00:34.323950,Monte's Trattoria,italian,4,406,97 Macdougal St,10012,40.72959,-74.0011
Business ID,insertedAtTimestamp,Name,Cuisine,Rating,Number of Reviews,Address,Zip Code,Latitude,Longitude
I07F7efWXUTSpi3WgITeFQ,2022-10-10 21:00:35.200085,Beppe Trattoria,italian,5,19,234 W 56th St,10019,40.76561,-73.98259
Z-QmxQZAJEy5GXqA82Bemw,2022-10-10 21:00:35.200210,Da Toscano,italian,4.5,79,24 Minetta Ln,10012,40.730508,-74.001238
9K0run3oObR0YT4jaOEvWg,2022-10-10 21:00:35.200236,L'Angeletto,italian,4.5,75,327 2nd Ave,10003,40.73541417,-73.982956
sRH-6ZY0gDbS4DhfUZU6zw,2022-10-10 21:00:35.200257,Soda Club,italian,4.5,43,155 Avenue B,10009,40.726654,-73.979875
FebvtuoXRQ8h8CZMe8NeYw,2022-10-10 21:00:35.200276,B'artusi,italian,4.5,22,520 Hudson St,10014,40.73401,-74.00607
b2z0IifTb3zeuEbZ5fx7YQ,2022-10-10 21:00:35.200294,Spaghetti Tavern,italian,4.5,68,425 Amsterdam Ave,10024,40.783999644919156,-73.97748999443762
3FJjOq78eeqakDCsJHqJug,2022-10-10 21:00:35.200316,Sotto La Luna,italian,4.5,53,34-39 31st St,11106,40.75821891908545,-73.92818819919232
7Tu5l9UfWVi_v3m4TwJAxQ,2022-10-10 21:00:35.200337,Caffe dei Fiori,italian,4.5,84,973 Lexington Ave,10021,40.76935,-73.9627
syNFp2qrQtXfH4bskQVgaA,2022-10-10 21:00:35.200355,Portale,italian,4.5,129,126 W 18th St,10011,40.74023348892918,-73.9962661
z8TIY5xLeQptbXxZp3LpsA,2022-10-10 21:00:35.200374,Felice 56,italian,4.5,71,15 W 56th St,10019,40.762862,-73.975396
zo4JHfD2nWPUiqgsgDOaHQ,2022-10-10 21:00:35.200392,Rao's,italian,4.5,202,455 E 114th St,10029,40.79392,-73.93427
NlmP5x_Ykznd55Dc85ChUg,2022-10-10 21:00:35.200410,Nittis,italian,4.5,280,523 9th Ave,10018,40.7567,-73.99411
kr5fRwdHtVwPPwSJxm9Fkg,2022-10-10 21:00:35.200444,Il Posto Accanto,italian,4,293,190 E 2nd St,10009,40.72238,-73.98403
ZmxEeE9m0CdpvM3wVRvonQ,2022-10-10 21:00:35.200462,Sicily Osteria,italian,4,47,330 W 46th St,10036,40.76019,-73.98918
YFvF4r2D-wJOgJAOvanaZQ,2022-10-10 21:00:35.200486,Gnoccheria By Luzzo's,italian,4,496,234 E 4th St,10009,40.723315,-73.983139
wzHyRI6iW0rIY8rMb3KClA,2022-10-10 21:00:35.200504,Felice,italian,4,87,240 Columbus Ave,10023,40.77697,-73.97933
d15lwNLOlLSeaAYqPadntw,2022-10-10 21:00:35.200522,Sam's Place,italian,4,279,132 E 39th St,10016,40.749270880468,-73.977082744053
oUVX94JtKyLPXozC2hemCg,2022-10-10 21:00:35.200541,Manetta's Ristorante,italian,4,434,1076 Jackson Ave,11101,40.7427,-73.95184
J0OeDwmh5JBhid0A5GvltA,2022-10-10 21:00:35.200560,Il Corallo Trattoria,italian,4,1103,176 Prince St,10012,40.7262073,-74.0018919
jku9Fg8JsUbv_LQzg6PK4g,2022-10-10 21:00:35.200578,Lavagna,italian,4,418,545 E 5th St,10009,40.72406,-73.98226
6Z5OWpaeGGazJHR4LfThsw,2022-10-10 21:00:35.200605,Palma,italian,4,805,28 Cornelia St,10014,40.73115,-74.00233
JyXn_GCGM2DsNYIzgzQrDw,2022-10-10 21:00:35.200622,Da Gennaro,italian,4,1201,129 Mulberry St,10013,40.71832,-73.99794
IErfGS0DASSJfYU73m0Sqg,2022-10-10 21:00:35.200640,Malatesta Trattoria,italian,4,1325,649 Washington St,10014,40.73285,-74.00847
tLZfepIfSf0a80zHQTbTGQ,2022-10-10 21:00:35.200657,Trattoria Zero Otto Nove,italian,4,841,2357 Arthur Ave,10458,40.854779,-73.888474
5EQOEAkH2Qh3Rv1TcnE7yA,2022-10-10 21:00:35.200684,Fiaschetteria Pistoia,italian,4,97,114 Christopher St,10014,40.73316,-74.00537
RG5atiZtuNtpDu6GrNUQGw,2022-10-10 21:00:35.200703,NORMA Gastronomia Siciliana,italian,4,70,801 9th Ave,10019,40.76563298237293,-73.98769143895947
Lesv5BG0_0-8bB49cAjMkg,2022-10-10 21:00:35.200734,Roberto's,italian,4,283,603 Crescent Ave,10458,40.85372,-73.88834
iQo5aJwTL_ZrXCdPFKq-RA,2022-10-10 21:00:35.200752,Isle of Capri,italian,4,272,1028 3rd Ave,10065,40.76283,-73.96602
zjglOaCY8xQu3s2eKnLFzw,2022-10-10 21:00:35.200783,Mozzarella & Vino,italian,4,263,33 W 54th St,10019,40.76204,-73.97718
KCBfW6sWl9Gx-LvMff08jg,2022-10-10 21:00:35.200801,Osteria Morini,italian,4,1255,218 Lafayette St,10012,40.7219179851303,-73.9976472073402
aSprnLY-6GkMk1cuv0TMeA,2022-10-10 21:00:35.200821,Al Di La Trattoria,italian,4,938,248 5th Ave,11215,40.675332643247,-73.981340475038
JOvcJqD5eCFrGjFa6k7vpQ,2022-10-10 21:00:35.200841,Zia Maria - Chelsea,italian,4,296,318 W 23rd St,10011,40.7454863,-73.9993392
IxwuIDcpRa7EpQs7V481Ww,2022-10-10 21:00:35.200859,Il Gattopardo,italian,4,211,13-15 W 54th St,10019,40.7614994602915,-73.976308999227
Vm6_cXz8hbvZhot0m1aaRg,2022-10-10 21:00:35.200879,Italianissimo Ristorante,italian,4,142,307 E 84th St,10028,40.7765,-73.95197
Ty1MvJz88DeNmX0eDHeMyQ,2022-10-10 21:00:35.200897,Pietro's,italian,4,132,232 E 43rd St,10017,40.7506055,-73.9721964
eQdjZQaLnjItmn9suEEeIA,2022-10-10 21:00:35.200915,Patricia's,italian,4,586,1082 Morris Park Ave,10461,40.84912,-73.8533099
zwOAiVT4pAmpNGXzj-t5MA,2022-10-10 21:00:35.200951,Lilia,italian,4,1046,567 Union Ave,11211,40.71757,-73.95236
3uyBZNbDk2vRFBBWZOdIUA,2022-10-10 21:00:35.200981,Dominick's Restaurant,italian,4,408,2335 Arthur Ave,10458,40.85434,-73.889
562aZEpTDdYKDe5hWuDyFA,2022-10-10 21:00:35.200999,La Gioconda,italian,4,186,226 E 53rd St,10022,40.75716,-73.96833
-hUvO0C0A-pGZdiSKvjoFw,2022-10-10 21:00:35.201016,Babbo,italian,4,2548,110 Waverly Pl,10011,40.732283,-73.999284
lgFApPVpbXnsIFw1CRJORw,2022-10-10 21:00:35.201034,Cellini Restaurant,italian,4,167,65 E 54th St,10022,40.760115,-73.972686
TWH4MjLtN1fKlF-7n6YXHg,2022-10-10 21:00:35.201052,Lil Frankie's,italian,4,1378,19 1st Ave,10003,40.723625,-73.988555
idxD3X7WfLFPZMoFnCRIQQ,2022-10-10 21:00:35.201070,Il Cantinori,italian,4,277,32 E 10th St,10003,40.7322779619352,-73.9929321762328
3P8hb1ZOCA8IjEGfqpSpxg,2022-10-10 21:00:35.201089,Sfoglia Restaurant,italian,4,310,1402 Lexington Ave,10128,40.783535,-73.952719
jDIVPYpxQAk1HUAi0NIlQw,2022-10-10 21:00:35.201107,Pazza Notte,italian,4,961,1375 Avenue of the Americas,10019,40.76348,-73.978091
77llOAEwInvK-oC2AHZ4nQ,2022-10-10 21:00:35.201125,Coppola's East,italian,4,409,378 3rd Ave,10016,40.74165,-73.98154
pTWFuMYed409y99N0zY05Q,2022-10-10 21:00:35.201143,Barbaresco Restaurant,italian,4,100,843 Lexington Ave,10065,40.76539,-73.96556
xeC9vn3dxVVzAMR_aFwfXg,2022-10-10 21:00:35.201162,IL Brigante,italian,4,476,214 Front St,10038,40.707492,-74.002571
k5fd-RSdG4IuXnnGSQ5oOw,2022-10-10 21:00:35.201179,San Marzano Pasta Fresca,italian,4,1428,117 Second Ave,10003,40.727966,-73.988382
TZto7AjdA337XIw66AOpUw,2022-10-10 21:00:35.201198,Scalinatella Restaurant,italian,4,308,201 E 61st St,10065,40.7627823203802,-73.9654829353094
Business ID,insertedAtTimestamp,Name,Cuisine,Rating,Number of Reviews,Address,Zip Code,Latitude,Longitude
zYaYXpmlo6QdnaPwuxWHhQ,2022-10-10 21:00:36.464451,L'Osteria,italian,4.5,11,1219 Lexington Ave,10028,40.77704,-73.95721
4WDHrSodF1Xidv9ezS6Sgg,2022-10-10 21:00:36.464515,Tuscany Steakhouse,italian,4.5,191,117 W 58th St,10019,40.76546,-73.97724
JwCnSW-RQ7_DxvbzWNO1hA,2022-10-10 21:00:36.464536,Coletta,italian,4.5,108,365 3rd Ave,10016,40.74094,-73.98139
-Td-YEPTOUq2H3LRWgRxUw,2022-10-10 21:00:36.464555,Non Solo Piada,italian,4.5,391,302 W 37th St,10018,40.75414,-73.99245
JBthOvTegHbrLDiVaCAy5Q,2022-10-10 21:00:36.464574,Bigoi Venezia,italian,4.5,315,1415 2nd Ave,10021,40.770036,-73.9577755
OwDRIugcA4LkUuTRqpJsog,2022-10-10 21:00:36.464592,Naked Dog,italian,4.5,264,47 Java St,11222,40.7312720665479,-73.9593493647979
6eqrk1wCQMww_ejze5gvsg,2022-10-10 21:00:36.464613,Forsythia,italian,4.5,118,9 Stanton St,10002,40.7225353,-73.992492
1ZKbUeFAs0ltSnAYq4ELKw,2022-10-10 21:00:36.464631,Trattoria L'incontro,italian,4.5,1062,21-76 31st St,11105,40.77648209257472,-73.91059675544598
ZamvzoxEKiJEboO0ZUdogw,2022-10-10 21:00:36.464652,Amici Ristorante,italian,4.5,143,165 Mulberry St,10013,40.71981,-73.99722
hDj_0pbi4mFR5p1H1w6igw,2022-10-10 21:00:36.464683,Misirizzi,italian,4.5,176,36 E 4th St,10003,40.7272,-73.99228
ry0nAQiUn8bpNAruY_5wfw,2022-10-10 21:00:36.464702,Scalino,italian,4.5,290,659 Manhattan Ave,11222,40.7244699,-73.95151
OLa3-KQO9rHjswo55E3Jgg,2022-10-10 21:00:36.464720,Trattoria La Sorrentina,italian,4.5,630,7831 Bergenline Ave,07047,40.80174,-74.00698
r2nIYBSyXny1-7XvsL2PVg,2022-10-10 21:00:36.464739,Lena's Italian Kitchen,italian,4.5,305,551 2nd Ave,10016,40.742664,-73.977783
T-RXDLq_VEv7s1_SooYIYQ,2022-10-10 21:00:36.464757,Osteria 57,italian,4.5,265,57 W 10th St,10011,40.73467,-73.99786
B2X53VuOuLyXe0OsGY-ZzA,2022-10-10 21:00:36.464775,La Pecora Bianca,italian,4.5,20,817 Washington St,10014,40.73959,-74.00775
MphfKkYFEe0BDQ6hZ0A5fA,2022-10-10 21:00:36.464793,Gelso & Grand,italian,4.5,1284,186 Grand St,10013,40.71958,-73.99734
dIyKvfhjtm3NuKrMVVt0TA,2022-10-10 21:00:36.464811,Lucciola Italian Restaurant,italian,4.5,72,621 Amsterdam Ave,10024,40.790362,-73.972629
7zk4bUsLYR_Jw-Ol-3ao9A,2022-10-10 21:00:36.464830,Dragon's,italian,5,2,Madsion Ave,10173,40.7540943,-73.9783245
06tnwnEQM2j9A6dC3HC_TQ,2022-10-10 21:00:36.464849,Capizzi,italian,4,859,547 9th Ave,10018,40.75744,-73.99357
iXV4FMZPru7BB_nwN_8mVw,2022-10-10 21:00:36.464867,Maiella,italian,4,1068,4610 Center Blvd,11109,40.7471944,-73.9566640197964
9T8Ootw4aqmaO42gI-wBSA,2022-10-10 21:00:36.464886,Botte UES,italian,4,70,1606 1st Ave,10028,40.775079766410514,-73.95047928303218
LTi4_wcCVmqQeJ_jgTEbOQ,2022-10-10 21:00:36.464906,Emporio,italian,4,848,231 Mott St,10012,40.722647,-73.995246
I0N_QtJy7sLiuW_vmvRIhg,2022-10-10 21:00:36.464933,Maruzzella,italian,4,132,1483 1st Ave,10075,40.77135,-73.95379
XHhRAKq6DArQXYhkgvwaow,2022-10-10 21:00:36.464951,Spaghetti Incident,italian,4,634,231 Eldridge St,10002,40.7223153441439,-73.9899454318763
o5mMVFk4Hcpk2FuKfgTgdg,2022-10-10 21:00:36.464971,Malaparte,italian,4,384,753 Washington St,10014,40.73687,-74.00812
hyBM_Xk9Hzp38acTHAHlBQ,2022-10-10 21:00:36.464988,dell'anima,italian,4,676,600 11th Ave,10036,40.7661790467228,-73.99445587334046
DtnlLLvcqeEUIyZTypHnzw,2022-10-10 21:00:36.465008,Il Mulino New York - Downtown,italian,4,599,86 W 3rd St,10012,40.729807,-73.999159
ezu7Ai6ADfHDYCklvuipWA,2022-10-10 21:00:36.465026,Arturo's,italian,4,90,1617 York Ave,10028,40.775478,-73.947847
nTCFXqiQPTvDfnAxHfA64A,2022-10-10 21:00:36.465044,Trattoria Tra di Noi,italian,4,171,622 East 187th St,10458,40.85493,-73.8869
xrTwutv3Y5I4lySFOaKa2A,2022-10-10 21:00:36.465061,Longo Bros,italian,4,62,474 9th Ave,10018,40.754825,-73.994862
PLIjHye4lpsyVRxlIOMPRA,2022-10-10 21:00:36.465079,Serafina Express,italian,5,1,402 6th Ave,10011,40.73359,-73.99921
ntQ7O1YPMIOrQkynhXRBVg,2022-10-10 21:00:36.465096,Manducatis,italian,4,155,13-27 Jackson Ave,11101,40.7445948529884,-73.9490695847509
oLg2HxLYChgvMRTK5ZSdKQ,2022-10-10 21:00:36.465116,Kurant,italian,4,235,1091 2nd Ave,10022,40.75971,-73.96521
FXYsBqMu2q1dhJYQg_FfAA,2022-10-10 21:00:36.465133,Rosemary’s,italian,4,167,350 1st Ave,10010,40.73512,-73.97965
tRIHhPKryUZ56SfIz6mLiA,2022-10-10 21:00:36.465152,Angelo's Coal Oven Pizzeria,italian,4,1052,117 W 57th St,10019,40.76492,-73.97794
00V7oJIc_wZKM2cjGrL1HQ,2022-10-10 21:00:36.465170,Bar Cicchetti by Fabio Viviani,italian,4,28,113 W 24th St,10011,40.743973307837564,-73.99300677914937
MPblH3J1kpbNGL4C4U7RAQ,2022-10-10 21:00:36.465190,IL Carino Restaurant,italian,4,106,1710 2nd Ave,10128,40.77945,-73.95019
uPe0efNw-uwPybeqccZ1zQ,2022-10-10 21:00:36.465208,Osteria Al Doge,italian,4,485,142 W 44th St,10036,40.75662,-73.9849
iEUXrUUqGfUhpgYYSr5Zig,2022-10-10 21:00:36.465226,Da Nico Ristorante,italian,4,950,164 Mulberry St,10013,40.71963,-73.99691
C3E8CVVwzKtOv_sRR1WuRQ,2022-10-10 21:00:36.465243,Salumeria Rosi,italian,4,547,283 Amsterdam Ave,10023,40.77932,-73.9809
mkS--Oq4UYJMQizSaKJXEw,2022-10-10 21:00:36.465261,Enzos of Arthur Avenue,italian,4,365,2339 Arthur Ave,10458,40.854716697326715,-73.8887236
O6RBNHBleB0mCb2dAanxCw,2022-10-10 21:00:36.465280,Casa Lever,italian,4,244,390 Park Ave,10022,40.759741,-73.972956
YE4pvo8ectzEaRYGqUgFcA,2022-10-10 21:00:36.465298,Felice 64,italian,4,385,1166 1st Ave,10065,40.76256,-73.9596
nSk_zCJESMKGLHyJTPPlZA,2022-10-10 21:00:36.465315,Bottino,italian,4,371,246 10th Ave,10001,40.74848569625031,-74.00331301292165
Ve6GVzzJpR5QIIPdcn6ViQ,2022-10-10 21:00:36.465335,Mercato,italian,4,1010,352 W 39th St,10018,40.75619,-73.9937
H5bhfR5sL0I2w1csjI1uMA,2022-10-10 21:00:36.465352,Piatto,italian,4,225,1-50 50th Ave,11101,40.7435117,-73.9590968
Yubu48l7he-qrNDSeAngbQ,2022-10-10 21:00:36.465370,Via Vai,italian,4,237,31-09 23rd Ave,11105,40.7741502,-73.9123089
lwfCl81r5a0mjxDNxNGC9w,2022-10-10 21:00:36.465388,Il Buco,italian,4,763,47 Bond St,10012,40.72583,-73.99299
C8Ctyq7pXOPESK8cz_X2CA,2022-10-10 21:00:36.465405,Pomodoro Rosso,italian,4,367,229 Columbus Ave,10023,40.776398,-73.979288
5Akss-swwfyoSVeIsDBbvw,2022-10-10 21:00:36.465423,Basta Pasta,italian,4,1502,37 W 17th St,10011,40.73881,-73.99407
Business ID,insertedAtTimestamp,Name,Cuisine,Rating,Number of Reviews,Address,Zip Code,Latitude,Longitude
5MpWHGQ6Qc-M4q1KL_nioA,2022-10-10 21:00:37.782068,Bar B,italian,4.5,193,84 7th Ave,10011,40.7395804,-73.999118
WYhRkUATHRyXZrE55MArbA,2022-10-10 21:00:37.782140,Scalini Fedeli,italian,4.5,339,165 Duane St,10013,40.71741473500126,-74.00943235989747
MCnexHfsclcOpLHS4_2U0A,2022-10-10 21:00:37.782160,San Carlo Osteria Piemonte,italian,4.5,265,90 Thompson St,10012,40.72517,-74.00212
xKIv_b2L2pUHmsoJ-xOepg,2022-10-10 21:00:37.782177,Gran Morsi,italian,4.5,444,22 Warren St,10007,40.7142052394856,-74.0077535494539
1AL6P_EC6Z3UPxqhfGFb3Q,2022-10-10 21:00:37.782194,Pasta by Hudson,italian,4.5,96,180 7th Ave,10011,40.7427486,-73.9969892
25npnVAlhRjguunYS8zy8w,2022-10-10 21:00:37.782210,Piccola Strada,italian,4.5,219,77 E 4th St,10003,40.72662,-73.99019
H5L18XZRHh_13HaeeHH_sQ,2022-10-10 21:00:37.782226,Casa Di Napoli,italian,4.5,145,703 32nd St,07087,40.773718,-74.0306062996387
dh5r9-SbN8xJ76XvnayWLQ,2022-10-10 21:00:37.782242,Giano Restaurant,italian,4.5,674,126 E 7th St,10009,40.7262256596862,-73.9840574049125
kzd10IXi3dTjoPw0TDj8tA,2022-10-10 21:00:37.782259,Osteria Nando,italian,4.5,136,1589 2nd Ave,10028,40.775692,-73.95369
-0fjWWC2SY6kNxGfD8PKGg,2022-10-10 21:00:37.782274,Palermo Restaurant & Bar,italian,4.5,283,2392 21st St,11105,40.7769088448014,-73.9212289547099
UQZmhaPAMdZabid6ccvhTg,2022-10-10 21:00:37.782290,Il Punto,italian,4.5,430,507 9th Ave,10018,40.75614426678582,-73.9946186
eWMuXtaBzf0H5u0Vf_zpjw,2022-10-10 21:00:37.782306,Ciccio,italian,4.5,302,190 6th Ave,10013,40.7263263267119,-74.0034471165676
4eGCuMwKRCCrYHOobEsFpA,2022-10-10 21:00:37.782322,Lusardi's,italian,4,249,1494 2nd Ave,10075,40.7724199,-73.9555
PajKY49h4SpvSr-TW3lwCQ,2022-10-10 21:00:37.782338,Rafele Ristorante,italian,4,510,29 7th Ave S,10014,40.7309471231405,-74.0041171779098
uPWyvfh5qSrVbujhjsDiiw,2022-10-10 21:00:37.782354,Oregano,italian,4,476,102 Berry St,11249,40.7190165,-73.9586248
pP4oS09iOB6qMaX3GkKSuQ,2022-10-10 21:00:37.782369,Avena UES,italian,4,37,22 E 66th St,10065,40.767957,-73.968759
4bHtiA1md69LDag55kv8lg,2022-10-10 21:00:37.782384,Isabelle's Osteria,italian,4,128,245 Park Ave S,10003,40.737985,-73.987703
fuS39acPaRi38DhSSwEI4Q,2022-10-10 21:00:37.782399,Felice,italian,4,425,15 Gold St,10038,40.70789,-74.00712
t-Pm38_XhMnGfOYgkhaNRA,2022-10-10 21:00:37.782414,Le Fanfare,italian,4,223,1103 Manhattan Ave,11222,40.736202,-73.955558
_V7YsDQ4Lb41rqfkuPzm1w,2022-10-10 21:00:37.782429,Trattoria Pesce Pasta,italian,4,281,262 Bleecker St,10014,40.73115,-74.00319
WmK7GXwOnLSTRN1ocyUThg,2022-10-10 21:00:37.782444,Puglia Ristorante,italian,4,603,189 Hester St,10013,40.7181606872639,-73.9976975651144
vAMKgIUWCrYxjfhceCCNAQ,2022-10-10 21:00:37.782460,Sandro's,italian,4,97,322 East 86th St,10028,40.77740421779163,-73.9537163
ZUrGqOG2cetGI-KKXk3c2g,2022-10-10 21:00:37.782475,Chazz Palminteri Italian Restaurant - New York,italian,4,314,30 West 46th St,10036,40.756473,-73.980563
FKzpfWUpyupl4q74Jt8fTA,2022-10-10 21:00:37.782491,Don Antonio,italian,4,1593,309 W 50th St,10019,40.762711,-73.986708
l7Z0p-PkSwIDPLPY1TRl8A,2022-10-10 21:00:37.782506,Emilio's Ballato,italian,4,453,55 E Houston St,10012,40.7244923,-73.9944022
15d_Y6TVOQFD2KRVkxuAjw,2022-10-10 21:00:37.782521,Baci & Abbracci,italian,4,344,204 Grand St,11211,40.7139015197754,-73.96044921875
v1M1HIQBVwYatEF_iOmedw,2022-10-10 21:00:37.782537,ViceVersa,italian,4,284,325 W 51st St,10019,40.7635858415079,-73.9866799425418
ZVa3-O6LMxZXSpKG0J1h-w,2022-10-10 21:00:37.782553,Piccolo Angolo Restaurant,italian,4,600,621 Hudson St,10014,40.7378601855952,-74.0058052539825
hq09sqXaYiEogbTrrJ9X5g,2022-10-10 21:00:37.782569,Da Capo Columbus,italian,4,151,322 Columbus Ave,10023,40.77972,-73.97752
na-2_gQCY7ccS2ZkLJDumQ,2022-10-10 21:00:37.782584,Waldy's Wood Fired Pizza & Penne,italian,4,858,800 6th Ave,10001,40.7457666039821,-73.9906402533629
cyLw0vW5MrsF35-A6Dy03w,2022-10-10 21:00:37.782600,Saggio,italian,4,658,829 W 181st St,10033,40.8514099281625,-73.9395604556239
Njr_f1J5Pve35OyPdBljVA,2022-10-10 21:00:37.782616,Convivium Osteria,italian,4,529,68 5th Ave,11217,40.68105,-73.97748
M4pCWzdBCkp2g_d834a7Hw,2022-10-10 21:00:37.782631,Sauce,italian,4,903,78 Rivington St,10002,40.7204716,-73.9893263
-8_vEcBA2Lqd8786S-Ss-g,2022-10-10 21:00:37.782645,Novita Restaurant,italian,4,410,102 E 22nd St,10010,40.73918,-73.98629
BA0_zeBrnugK2l0HHp38mw,2022-10-10 21:00:37.782660,Via Della Pace,italian,4,558,87 E 4th St,10003,40.72646,-73.9898
yi6jIxzHo-nbAOG4KWuqcw,2022-10-10 21:00:37.782691,Maialino,italian,4,1400,30 E 30th St,10016,40.7448869,-73.984231
e7jRn5TNlF84k7PuvJ1MOA,2022-10-10 21:00:37.782706,Manducatis Rustica,italian,4,214,46-33 Vernon Blvd,11101,40.7458575124991,-73.9528775638914
zzJA5P32V9MIHIMBIyasJw,2022-10-10 21:00:37.782722,Dante West Village,italian,4,152,551 Hudson St,10014,40.735202,-74.006251
IEb99GmOvg585gmwmm4iNA,2022-10-10 21:00:37.782737,Azalea Ristorante,italian,4,315,224 W 51st St,10019,40.76284953588084,-73.98522287224887
9lDqOfKeEB15AWfsWIq8mA,2022-10-10 21:00:37.782753,Mario's Restaurant,italian,4,309,2342 Arthur Ave,10458,40.8542,-73.88857
JSexQM-wn8HvWmfxu_m5ZA,2022-10-10 21:00:37.782768,Gnocco,italian,4,546,337 E 10th St,10009,40.72713,-73.9802799
oEjWa3AETzPQfM3S1wRiLA,2022-10-10 21:00:37.782783,Due,italian,4,90,1396 3rd Ave,10075,40.77466,-73.95724
CfYxlqO3W3PCE7hVhYJNyA,2022-10-10 21:00:37.782797,Il Gradino,italian,4,13,808 Lexington Ave,10065,40.76436,-73.96681
mTWlEiCUEBlxBAkIikkB1A,2022-10-10 21:00:37.782812,Carmine's Italian Restaurant - Upper West Side,italian,4,1635,2450 Broadway,10024,40.791077,-73.973763
fmdEiai0e4agyTEqFUWJmw,2022-10-10 21:00:37.782827,Amarone NY,italian,4,343,686 9th Ave,10036,40.7617199,-73.99002
qYDoWRdntIApGW6fEUHWIQ,2022-10-10 21:00:37.782842,biricchino,italian,4,150,260 W 29th St,10001,40.7488743961,-73.9954839431414
rupPZLhd0oRSAmVDaeYaGA,2022-10-10 21:00:37.782858,Bocca di Bacco Hell's Kitchen,italian,4,678,836 9th Ave,10019,40.7662168,-73.9867943
S8OKQ5S40oZ1Rr5RbC0jdg,2022-10-10 21:00:37.782873,Motorino,italian,4,1109,349 E 12th St,10003,40.73039,-73.98381
nBy8KtcUHktPFKw-VClG1A,2022-10-10 21:00:37.782887,La Pecora Bianca,italian,3.5,346,950 2nd Ave,10022,40.75495,-73.9682718
hVqZ4vihjL1gFTD-KdX-Tw,2022-10-10 21:00:37.782903,Gennaro,italian,3.5,415,665 Amsterdam Ave,10025,40.79178,-73.9718
Business ID,insertedAtTimestamp,Name,Cuisine,Rating,Number of Reviews,Address,Zip Code,Latitude,Longitude
2_3W7NFFN3m4U_8ffgEuyQ,2022-10-10 21:00:38.926007,Cafe Spaghetti,italian,4.5,41,126 Union St,11231,40.68412,-74.0024
jol3Ay0RMCdJd0eSZdKOEQ,2022-10-10 21:00:38.926043,Beneci's,italian,4.5,8,500 Harbor Blvd,07086,40.758870842563404,-74.02360969020963
riykDqJw_NPGssLgqCeD-Q,2022-10-10 21:00:38.926058,Aunt Jake's,italian,4.5,152,1555 2nd Ave,10028,40.774587,-73.954513
7AknGS1qVEyq_pHfmjkZtg,2022-10-10 21:00:38.926071,Wolf at Nordstrom NYC,italian,4.5,97,225 W 57th St,10019,40.7661522,-73.9811393
3n96VKiKG5Tte8z-U-TaLg,2022-10-10 21:00:38.926083,SoleLuna Restaurant,italian,4.5,471,40-01 Queens Blvd,11104,40.7439934462309,-73.9240421354771
f8TZ_ctcSwxwW8S69YKnwg,2022-10-10 21:00:38.926096,Il Bambino,italian,4.5,1290,34-08 31st Ave,11106,40.76281,-73.92089
U91Lj5NUG42zweY_LKjKbQ,2022-10-10 21:00:38.926108,Fasano Restaurant New York,italian,4.5,12,280 Park Ave,10017,40.75675458251292,-73.9755649
Sp-vnk-waTvKblG_88M4TA,2022-10-10 21:00:38.926120,Trapizzino,italian,4.5,275,144 Orchard St,10002,40.72043,-73.98894
oRdM7n-AfBPBGAlH4Q0Sag,2022-10-10 21:00:38.926131,My Pie Pizzeria Romana,italian,4.5,869,690 Lexington Ave,10022,40.7608512,-73.9694809
f_1BjTChf6bobreSRpqhsw,2022-10-10 21:00:38.926143,Arco Cafe,italian,4.5,325,886 Amsterdam Ave,10025,40.7988462,-73.967065
e4L0hsq6Q96mV2nKQ9CgNQ,2022-10-10 21:00:38.926154,Tramonti Fifth Ave,italian,4.5,53,2 W 28th St,10001,40.74475,-73.98772
muX5xoh3aOleCrSja_T_FA,2022-10-10 21:00:38.926165,IL Tavolo di’ Palmisano,italian,4.5,192,700 Clinton St,07030,40.74571,-74.03346
iV5yy8EbjsPoYWtjRhB61Q,2022-10-10 21:00:38.926178,Nica Trattoria,italian,4.5,151,354 E 84th St,10028,40.7756431,-73.950783
qhyll2gPT-gGDRP6JGn1aQ,2022-10-10 21:00:38.926189,Bice Cucina - Midtown,italian,4.5,134,62 W 55th St,10019,40.7624702435463,-73.9768997892404
Be1Y-vAEMgo7lqL5alXgDA,2022-10-10 21:00:38.926201,Taverna Di Bacco,italian,4.5,324,175 Ludlow St,10002,40.72191,-73.98768
wLzJbddDixAEZrF7VT6_hw,2022-10-10 21:00:38.926211,Bono Trattoria,italian,4,349,3658 Broadway,10031,40.8301996389829,-73.9473449424522
Z67mgMkN3RfdPEX5mXsyYA,2022-10-10 21:00:38.926224,Piacere,italian,4,700,351 Broome St,10013,40.7196979,-73.9951175
RPP_wHhM8yZYIP5W-YHk6Q,2022-10-10 21:00:38.926267,Fumo,italian,4,188,2791 Broadway,10025,40.80284,-73.968119
gyWc5qJRvu26LVQIShdR4Q,2022-10-10 21:00:38.926287,Babbalucci,italian,4,459,331 Lenox Ave,10027,40.80894,-73.94496
foRWizWrQ32g6Vv4g9UTnA,2022-10-10 21:00:38.926299,Nocciola Ristorante,italian,4,256,237 E 116th St,10029,40.797525,-73.938393
vhqFa_0SG9M7Ra1OTmfB9A,2022-10-10 21:00:38.926310,LaRina Pastificio & Vino,italian,4,203,387 Myrtle Ave,11205,40.6933631896973,-73.9704132080078
bEXTA_Gwo2oVg4gnFd9fNA,2022-10-10 21:00:38.926323,Ai Fiori,italian,4,1414,400 5th Ave,10018,40.7500752,-73.9837835
I2lgw_7DUnwD92ND4PN-Ow,2022-10-10 21:00:38.926335,Aunt Jake's,italian,4,1643,133 Mulberry St,10013,40.7186467,-73.9979241
s5nPO911cYB2chdwqSqT9g,2022-10-10 21:00:38.926346,La Nonna Ristorante & Bar,italian,4,389,184 Kent Ave,11249,40.718468787527,-73.9639185527139
2Nwmd7-1d1rI6lb9QSSYYA,2022-10-10 21:00:38.926358,A Pasta Bar,italian,4,436,330 W Broadway,10013,40.72229,-74.00403
J38XGzriEkMsDfCMt6et_g,2022-10-10 21:00:38.926369,VEZZO NYCThinCrust Pizza,italian,4,1359,178 Lexington Ave,10016,40.744435447210506,-73.9814189
yc4vsT-Q4Ej1_9hr94DxkQ,2022-10-10 21:00:38.926381,Sotto 13,italian,4,1017,140 W 13th St,10011,40.7372,-73.99919
DJSLGbSqCJ1W8ma3LFlMuw,2022-10-10 21:00:38.926392,Patzeria Perfect Pizza,italian,4,1750,231 W 46th St,10036,40.759494511551836,-73.98673451962638
78TCGIG1eHMYdyvMpFdDbQ,2022-10-10 21:00:38.926404,Follia,italian,4,259,179 3rd Ave,10003,40.7349243164062,-73.9855880737305
_yMBdYh5p--WtF3n4a2iNw,2022-10-10 21:00:38.926416,Il Mulino Prime - Gramercy,italian,4,45,43 E 20th St,10003,40.73875,-73.9885
HV8xairb2qct7wSHqNwqXw,2022-10-10 21:00:38.926426,Levante,italian,4,311,26-21 Jackson Ave,11101,40.74764,-73.94173
01eI6pT0doZiu0nm-Gl7RA,2022-10-10 21:00:38.926437,Trattoria 35,italian,4,516,213-15 35th Ave,11361,40.76902,-73.77417
vEYEs9McRtRdKBp2XfRNZA,2022-10-10 21:00:38.926447,Finestra Restaurant,italian,4,113,1370 York Ave,10021,40.76751,-73.95288
QhRQE6nOMLd00kV2k-IsbQ,2022-10-10 21:00:38.926458,Augustino's,italian,4,355,1104 Washington St,07030,40.75024,-74.02732
kQuTJxm0KAX1AsS46vhC_g,2022-10-10 21:00:38.926468,Barbuto,italian,4,59,113 Horatio St,10014,40.73885,-74.00932
CygcAgexrpJGY8iWp7QqnA,2022-10-10 21:00:38.926479,Antonucci Cafe,italian,4,171,170 E 81st St,10028,40.77574,-73.95689
DCiEo7qucPaEj7Gtdj1U9A,2022-10-10 21:00:38.926489,Sant Ambroeus,italian,4,473,1000 Madison Ave,10021,40.77541,-73.96297
kvWSD8qHKugLcmDsNBMdfQ,2022-10-10 21:00:38.926499,Paola's Osteria,italian,4,65,1246 Madison Ave,10128,40.78318,-73.9573
n_NIY1KTi-R5DPkduEUKIw,2022-10-10 21:00:38.926510,Ovest Pizzoteca by Luzzo's,italian,4,585,513 W 27th St,10001,40.7507476806641,-74.0030212402344
kLJfizeHMQqesp1K9mfUtg,2022-10-10 21:00:38.926522,Via Quadronno,italian,4,596,25 E 73rd St,10021,40.77277,-73.96514
bEloKDe-QVkwakAwmFKbbA,2022-10-10 21:00:38.926532,Frying Pan,italian,4,1609,207 12th Avenue,10001,40.7521174043978,-74.0090024471283
5zcZZJhriNQ2R92r9drxug,2022-10-10 21:00:38.926544,Il Postino,italian,3.5,140,133 E 61st St,10065,40.76374,-73.96763
QObHX0yR6zd0WfksRDbJTA,2022-10-10 21:00:38.926555,Becco,italian,3.5,3023,355 W 46th St,10036,40.76083,-73.98981
rJJiGJx3kfMAxtD7P7okHQ,2022-10-10 21:00:38.926566,Celeste Restaurant,italian,3.5,955,502 Amsterdam Ave,10024,40.78666,-73.97599
FpgzHQMSNTTjagrKXxOw5A,2022-10-10 21:00:38.926577,San Matteo Pizzeria e Cucina,italian,3.5,372,1559 2nd Ave,10028,40.7746799,-73.95443
uzEhT55QIdk9YbfFwmlRzQ,2022-10-10 21:00:38.926588,Altesi Ristorante,italian,3.5,79,26 E 64th St,10065,40.76667,-73.96959
VqxwHMcof6G5RIw45dMpGQ,2022-10-10 21:00:38.926599,Serafina,italian,3.5,19,400 West 42nd St,10036,40.75845,-73.99308
HSKcCmRFqzqG542Hy_eftw,2022-10-10 21:00:38.926609,Siena Cafe,italian,3.5,274,1580 3rd Ave,10128,40.78073,-73.953
E1RvMNZ4re4TnKarjx14Zw,2022-10-10 21:00:38.926620,Cacio E Pepe,italian,3.5,689,182 2nd Ave,10003,40.73065490170433,-73.98593714531415
GAvyDral555vltKrupUcjw,2022-10-10 21:00:38.926632,Osteria Laguna,italian,3.5,369,209 E 42nd St,10017,40.750656315963745,-73.97356620000002
Business ID,insertedAtTimestamp,Name,Cuisine,Rating,Number of Reviews,Address,Zip Code,Latitude,Longitude
HodL0fXoF08C3Ir-kLeTtw,2022-10-10 21:00:40.316717,Forma Pasta Factory,italian,4.5,444,14 Bedford Ave,11222,40.72371,-73.95157
gJg_Gh2lqrCprDzR6ZP9QQ,2022-10-10 21:00:40.316816,314 Pizza Pasta & Wine Bar,italian,4.5,116,3143 Broadway,10027,40.8141969,-73.9598383
c3D2ckzacnPtdGIM8tb-_w,2022-10-10 21:00:40.316845,B Side Pizza & Wine Bar,italian,4.5,1242,370 W 51st St,10019,40.76388,-73.98821
wCj2FSi9o6iosMIMNIIZsA,2022-10-10 21:00:40.316871,Loreto Italian Kitchen & Bar,italian,4.5,79,280 Ashland Pl,11217,40.687037,-73.978577
mPHPVJ2-8mOR-lFHafrc6w,2022-10-10 21:00:40.316896,Evelina,italian,4.5,290,211 Dekalb Ave,11205,40.689722,-73.971003
rJfGgBleDYCVq2rkBr_w-Q,2022-10-10 21:00:40.316934,Barano,italian,4.5,305,26 Broadway,11249,40.710372,-73.96794
eMSTTuOUlKEnSOr8lPp3Xg,2022-10-10 21:00:40.316958,Ammazzacaffè,italian,4.5,265,702 Grand St,11211,40.7113172,-73.9446243
iutTifH0Xy0UkN86vEvV2Q,2022-10-10 21:00:40.316984,Aria Wine Bar,italian,4.5,38,14 Bedford St,10014,40.7290058570751,-74.0033128150578
XvEz60Y0NbLxooK9AmRU8g,2022-10-10 21:00:40.317016,Piccoli Trattoria,italian,4.5,552,522 6th Ave,11215,40.66518210863434,-73.98653954110445
hpRrYBbKUqv8ewFKDjbjoA,2022-10-10 21:00:40.317044,Gersi,italian,4.5,333,316 Court St,11231,40.683438,-73.995711
WNOUPEZ6J8SZVSaK6Q3e-A,2022-10-10 21:00:40.317067,Porto By Antonio,italian,4.5,879,8921 Old River Rd,07047,40.8048834508642,-73.9934416639218
dvkQIG20RjgNi-SwRr_1CQ,2022-10-10 21:00:40.317093,MAMO Restaurant,italian,4,322,323 W Broadway,10013,40.72186,-74.00382
QgEre4IFSHxbUvHMe8S12g,2022-10-10 21:00:40.317116,Pinocchio Restaurant,italian,4,217,300 East 92 St,10128,40.781448901412105,-73.94866582944772
DI_FoHY84hfzTWwlzF76aw,2022-10-10 21:00:40.317142,Benito One,italian,4,792,174 Mulberry St,10013,40.7200188460948,-73.9969412164592
nVtJOWn3XlL6MSZ-YnU6iA,2022-10-10 21:00:40.317172,Da Francesco,italian,4,137,442 Graham Ave,11211,40.718353,-73.944677
KL6AUMQI_Ae7_brkK0fy_w,2022-10-10 21:00:40.317196,La Vela Dining & Bar,italian,4,183,558 11th Ave,10036,40.761082,-73.997872
X8Hl9OezX-Yr9Jir3fsF7g,2022-10-10 21:00:40.317219,POSTO NYCThinCrust Pizza,italian,4,654,310 2nd Ave,10003,40.73483,-73.98282
5ZEFbq_AQV5VQFG2JKYzlA,2022-10-10 21:00:40.317243,Giorgio's of Gramercy,italian,4,803,27 E 21st St,10010,40.7394209879325,-73.9885425567627
7EAj8VJX_DoKlZdCJBE4Pg,2022-10-10 21:00:40.317268,La Bella Vita,italian,4,462,163 Mulberry St,10013,40.719816,-73.997403
5k_jwjhdFMPUNWhouGNzuA,2022-10-10 21:00:40.317292,Misi,italian,4,512,329 Kent Ave,11249,40.71341,-73.96662
Ry9w-jFALWYhazi6jjyIKw,2022-10-10 21:00:40.317314,Rucola,italian,4,543,190 Dean St,11217,40.68562,-73.98587
2MuvmwOuwvGOWkBimhniLA,2022-10-10 21:00:40.317336,La Bellezza,italian,4,290,145 E 49th St,10017,40.7557792663574,-73.9720153808594
-58--bg-KKUNArp18U4llA,2022-10-10 21:00:40.317361,da Umberto,italian,4,211,107 W 17th St,10011,40.7396659851074,-73.9958267211914
xQ445GaWVN5Aa3sFX9OoIg,2022-10-10 21:00:40.317386,Buvette,italian,4,2015,42 Grove St,10014,40.732704,-74.00434640955953
3D6UAhoKnF3A03rX_v5ngA,2022-10-10 21:00:40.317410,Bacaro,italian,4,421,136 Division St,10002,40.71456,-73.99154
ft2OPgLsquG9d7XrBLULng,2022-10-10 21:00:40.317438,ALIDORO,italian,4,256,18 E 39th St,10016,40.75097,-73.98108
clOFor0bFSjse7EUfdRacg,2022-10-10 21:00:40.317462,Faro,italian,4,315,436 Jefferson St,11237,40.707407,-73.922839
m4MPLIv-WsGdcB7GReE06Q,2022-10-10 21:00:40.317485,Quattro Gatti Restaurant,italian,4,106,205 E 81st St,10028,40.77552,-73.95587
Kh0-HmlgmVUkRxR55_Vn1g,2022-10-10 21:00:40.317507,Patsy's Pizzeria,italian,4,905,2287 1st Ave,10035,40.797157,-73.93488
GnaeBuilZb_fU01v3wNhZw,2022-10-10 21:00:40.317530,Grimaldi's,italian,4,448,411 Washington St,07030,40.74131,-74.02953
JU5d81TYm7IJHWqOqJWMqw,2022-10-10 21:00:40.317553,Have & Meyer,italian,4,172,103 Havemeyer St,11211,40.7132687751084,-73.9564743950496
VqnPcfqYltgxAkIuTaGkYg,2022-10-10 21:00:40.317583,Tre,italian,4,510,173 Ludlow St,10002,40.72184,-73.987714
Li4N7-v4a7cXV5TT1OFOWw,2022-10-10 21:00:40.317606,Luchini Italian,italian,4,18,39 E 58th St,10022,40.7629313,-73.9714374
pC_QwLpeL2Enk4hBgDcRqQ,2022-10-10 21:00:40.317629,Da Marino,italian,4,621,220 W 49th St,10019,40.76102,-73.98526
vFsjObMTImsnM_DzVo4N3g,2022-10-10 21:00:40.317663,Bocca Cucina and Bar,italian,4,435,39 E 19th St,10003,40.73826,-73.98886
cp5k0PKl236X0xaNDYR5Zw,2022-10-10 21:00:40.317681,Feroce Ristorante,italian,4,82,105 W 28th St,10001,40.746403834819894,-73.9909495791506
k4ds_s6y8S46WzVIolypLQ,2022-10-10 21:00:40.317701,Serena's Wine Bar,italian,4,154,1268 2nd Ave,10065,40.7652988,-73.9609017
WIhm0W9197f_rRtDziq5qQ,2022-10-10 21:00:40.317724,Lombardi's Pizza,italian,4,6430,32 Spring St,10012,40.7215934960083,-73.9955956044561
ieoPAi6nbdEkrwv4vGVSwg,2022-10-10 21:00:40.317744,Via Trenta Osteria,italian,3.5,512,3619 30th Ave,11103,40.76491,-73.91654
1nQZbtmjODUgPm-QQdKrhA,2022-10-10 21:00:40.317763,Milk and Roses,italian,3.5,432,35 Box Sta,11222,40.73749,-73.95474
gTEoEsssfbjl76Opf5bP9g,2022-10-10 21:00:40.317780,L'Amico NYC,italian,3.5,521,849 6th Ave,10001,40.7471761,-73.9898915
JliAIBARXi9uISzNG26DVw,2022-10-10 21:00:40.317799,Elio's,italian,3.5,292,1621 2nd Ave,10028,40.7767632368091,-73.9526632086427
MoyxzhaYIsJx-p9IuGGK4w,2022-10-10 21:00:40.317818,Stella 34 Trattoria,italian,3.5,718,151 West 34th St,10001,40.75049486336486,-73.98798861987918
sB8-R8-FYj-kJrSzTlbmgw,2022-10-10 21:00:40.317838,Coppola's West,italian,3.5,338,206 W 79th St,10024,40.7831637424309,-73.9789159423279
3FCxi2imtP_wMgsgsqIQOw,2022-10-10 21:00:40.317857,Bocca Di Bacco,italian,3.5,307,635 9th Ave,10036,40.76024707932667,-73.99165780170934
6n7D4amt9vEruR73tt3S9w,2022-10-10 21:00:40.317877,Cafe Fiorello,italian,3.5,882,1900 Broadway,10023,40.77134,-73.9819051
LSOpxBBa217HxnJ7VnY2WQ,2022-10-10 21:00:40.317895,Il Violino,italian,3.5,317,180 Columbus Ave,10023,40.775012,-73.980736
E2zKMwHhz4--dyplQ7gf8A,2022-10-10 21:00:40.317923,Pappardella,italian,3.5,697,316 Columbus Ave,10023,40.77940129780038,-73.97750031523518
YT5Ywu9y190B4IGIlBetzA,2022-10-10 21:00:40.317944,Morandi,italian,3.5,761,211 Waverly Pl,10014,40.73534,-74.00151
XzkmePjJC0ryuqZp5qd12A,2022-10-10 21:00:40.317962,Fresco By Scotto,italian,3.5,467,34 E 52nd St,10022,40.758896,-73.97444438329205
Business ID,insertedAtTimestamp,Name,Cuisine,Rating,Number of Reviews,Address,Zip Code,Latitude,Longitude
fyC2cBsQ0FsMJmv0jSworg,2022-10-10 21:00:43.889079,Donna Margherita,italian,4.5,149,1304 2nd Ave,10065,40.76652,-73.9598
CFR-HzVHKWRMpMAR3LAhzg,2022-10-10 21:00:43.889174,Montesacro Pinseria Brooklyn,italian,4.5,207,432 Union Ave,11211,40.71338,-73.95136
KMiRIUS2gdukQRihHkPLmw,2022-10-10 21:00:43.889199,Viva cucina,italian,4.5,23,85 2nd Ave,10003,40.72676,-73.98923
5CuYWr0-cE01HxlBu5Ka6g,2022-10-10 21:00:43.889216,Carne Mare,italian,4.5,122,89 South St,10038,40.70568649199326,-74.00218961453646
4SdvTwFkW3Qx0f_3zBN_ZA,2022-10-10 21:00:43.889236,Bareli's Restaurant & Bar,italian,4.5,154,219 State RT 3,07094,40.79134259749607,-74.05492081979264
E5rmVdrCn-0uwD2M9nkXdw,2022-10-10 21:00:43.889254,Da Capo,italian,4.5,218,1392 Madison Ave,10029,40.7877696714384,-73.9538384601474
uYHN9Vw3V1ajDGRnNDtbYw,2022-10-10 21:00:43.889272,Michael's of Brooklyn,italian,4.5,326,2929 Ave R,11229,40.6076329987397,-73.9428921973385
qnQG2OYczrvJ3hals7gCjA,2022-10-10 21:00:43.889297,One Fifth,italian,4.5,12,1 5th Ave,10003,40.731958617147676,-73.99622414955519
zRXMvxUX_rOliKZPpkWi_g,2022-10-10 21:00:43.889316,Valerie,italian,4.5,477,45 W 45th St between 5th & 6th Ave,10036,40.756326,-73.981117
WEhkGLKlj-5X1pq_07Syaw,2022-10-10 21:00:43.889334,Vesta,italian,4.5,739,21-02 30th Ave,11102,40.76961,-73.92776
wTaomJ5xoi-c7R_xKFmcpA,2022-10-10 21:00:43.889356,Positano Restaurant,italian,4,502,10018 4th Ave,11209,40.6127378,-74.0339271
SpyQHasbnU5YkOR6PI4sNQ,2022-10-10 21:00:43.889374,Margherita NYC,italian,4,313,197 Grand St,10013,40.7189865112305,-73.9969329833984
Rc1lxc5lSKJYd162JHNMfQ,2022-10-10 21:00:43.889391,Bea,italian,4,2732,403 W 43rd St,10036,40.7591968,-73.9923361
6zH2Ih2Hw2wwf9ssIbZYRw,2022-10-10 21:00:43.889407,VinoTapa,italian,4,455,201 E 31st St,10016,40.7436868467235,-73.9790102422585
7S8g0G_Ndc3DS-kqsozq8Q,2022-10-10 21:00:43.889424,83 1/2,italian,4,219,345 E 83rd St,10028,40.775354,-73.951216
hot1lIebdQNau05onRum7w,2022-10-10 21:00:43.889441,Otto Strada,italian,4,396,743 Park Ave,07030,40.7466038915745,-74.0311605558891
IOHaEgK1zDvUvB3SfKuGCw,2022-10-10 21:00:43.889459,Parker & Quinn,italian,4,1536,64 W 39th St,10018,40.752598878505694,-73.9850713153442
QgClXDNikG0wRpIZ-Rcm7A,2022-10-10 21:00:43.889477,La Devozione,italian,4,33,75 9th Ave,10011,40.742463072401314,-74.0059581
cpN0ixPR2l3QFA8Uf1BhCQ,2022-10-10 21:00:43.889494,Luna Rossa,italian,4,135,347 E 85th St,10028,40.776596,-73.950351
CAGAWbPE8uPr2VVvEnv0ZA,2022-10-10 21:00:43.889510,Ribalta Pizza,italian,4,701,48 E 12th St,10003,40.7334346,-73.9916923
_KIjhnsaui-wF9OePRZ5NA,2022-10-10 21:00:43.889526,Gottino Enoteca e Salumeria,italian,4,313,52 Greenwich Ave,10011,40.7358,-74.00036
1CSsMjfgqWShayQBwNuoNg,2022-10-10 21:00:43.889541,Erbaluce,italian,5,1,46 W 22nd St,10010,40.741718,-73.992427
RbiXVG4tzpC3zuILadyPIQ,2022-10-10 21:00:43.889556,La Pecora Bianca,italian,4,10,359 Columbus Ave,10024,40.78049101969648,-73.9763467
NZaq_ygLr4N8-blY5dGx-g,2022-10-10 21:00:43.889609,Paul's On Times Square,italian,4,334,136 W 42nd St,10036,40.75522,-73.98539
NG-vmMrBZlxAZrxgoiromg,2022-10-10 21:00:43.889630,TAPPO NYCThinCrust Pizza,italian,4,552,49 W 24th St,10010,40.74337,-73.99153
bW3mY-voyav37nU0uaLmNQ,2022-10-10 21:00:43.889647,Dante,italian,4,538,79-81 Macdougal St,10012,40.72879,-74.00165
53ZNJNrT91VgvrI0LFjLNQ,2022-10-10 21:00:43.889665,Locanda Vini e Olii,italian,4,334,129 Gates Ave,11238,40.685007,-73.962943
LRgB2kEKtBxqIxNksTO_PQ,2022-10-10 21:00:43.889681,Patrizia's - Williamsburg,italian,4,768,35 Broadway,11249,40.7109154314181,-73.9673637711639
twHJyFgUSd7wzioKQjE7Jw,2022-10-10 21:00:43.889700,Galli,italian,4,1031,45 Mercer St,10013,40.72161,-74.00127
Tp3MF3DNXuW41A10PQ2nFw,2022-10-10 21:00:43.889717,Amali NYC,italian,4,484,115 E 60th St,10022,40.7633557384716,-73.9686296877489
LfRiA6RORToZUSJUHkZBVA,2022-10-10 21:00:43.889735,Frankies 457 Spuntino,italian,4,875,457 Court St,11231,40.677328,-73.997972
6aVgixwks8EgirE1JtyDAQ,2022-10-10 21:00:43.889752,John's of 12th Street,italian,4,819,302 E 12th St,10003,40.730685,-73.985502
-KrQ1gOiyXCbffsWyc5SNQ,2022-10-10 21:00:43.889770,The Leopard at des Artistes,italian,4,263,1 W 67th St,10023,40.773515,-73.978841
lA6IvTF7J8fNC5puhyS3PA,2022-10-10 21:00:43.889786,Bellini,italian,3.5,274,483 Columbus Ave,10024,40.78457,-73.97317
TO9IICJjvcg1QhLVnap9fA,2022-10-10 21:00:43.889803,Cent'Anni,italian,3.5,494,742 Franklin Ave,11238,40.6730907423467,-73.9573492245369
T_vLaKsuyJPDpsrSZuc7WA,2022-10-10 21:00:43.889822,Battello,italian,3.5,694,502 Washington Blvd,07310,40.725357,-74.032278
UpnHg_984LLZ28-kBB5MSQ,2022-10-10 21:00:43.889838,Bella Luna Restaurant,italian,3.5,332,574 Columbus Ave,10024,40.787762,-73.971458
YoLxK5EG8UgnueKAe7hj0g,2022-10-10 21:00:43.889856,I Sodi,italian,3.5,445,105 Christopher St,10014,40.7334747314453,-74.005012512207
u6q1s6c0H9wQwFUJJzAiOw,2022-10-10 21:00:43.889874,Gigino At Wagner Park,italian,3.5,332,20 Battery Pl,10004,40.7052055368065,-74.0184892569177
MyVbXtvst8X7sbR7gUA_ug,2022-10-10 21:00:43.889893,Cacio E Vino,italian,3.5,399,80 2nd Ave,10003,40.726384,-73.988873
EZNw56hywTm1PJNYOMbfHQ,2022-10-10 21:00:43.890045,Morso,italian,3.5,150,420 E 59th St,10022,40.759032,-73.960801
Jgaf3JmVaPokYB3ezbhjCQ,2022-10-10 21:00:43.890066,Caravaggio,italian,3.5,123,23 E 74th St,10021,40.7734565734863,-73.964729309082
V7z1ZkTOtV-dNOKhZsAlMw,2022-10-10 21:00:43.890087,Patsy's Pizzeria,italian,3.5,302,801 2nd Ave,10017,40.750427,-73.972129
QUTSHrHw3qRZjf749VM1Yg,2022-10-10 21:00:43.890105,Serafina Osteria,italian,3.5,147,38 E 58th St,10022,40.76273,-73.97155
nw85LVh6H3JIiw3ugvhAmw,2022-10-10 21:00:43.890122,Lasagna Chelsea Restaurant,italian,3.5,575,196 8th Ave,10011,40.7432418,-73.99970359599844
-Gc5sTFxoXM3Tiv_dkSJZg,2022-10-10 21:00:43.890141,Cecconi's Dumbo,italian,3.5,984,55 Water St,11201,40.7033063330116,-73.9916549604523
-tQ9Zlb5d9PPlDz_6UgV7w,2022-10-10 21:00:43.890161,Antica Pesa,italian,3.5,419,115 Berry St,11249,40.71884,-73.95865
H_TGP2AgX3IUmzq8Aml79Q,2022-10-10 21:00:43.890178,L' Angolo Tribeca,italian,3.5,174,190-A Duane St,10013,40.71734,-74.01044
pgtgGAAuHMT0KTm3CDPQsA,2022-10-10 21:00:43.890196,Sorellina,italian,3.5,341,1036 Washington St,07030,40.74977,-74.02746
ZIlCi38S2pcWuHlpMxvG7w,2022-10-10 21:00:43.890213,Montebello Ristorante Italiano,italian,3.5,94,120 E 56th St,10022,40.760504,-73.970625
Business ID,insertedAtTimestamp,Name,Cuisine,Rating,Number of Reviews,Address,Zip Code,Latitude,Longitude
rtU8unwT3xSl47ksZWf1rQ,2022-10-10 21:00:45.102521,Baked by Luigi,italian,5,10,221 E 23rd St,10010,40.7385431,-73.98192757546055
f3qoWQSowZCb-4RdLQu7ng,2022-10-10 21:00:45.102563,Della’s,italian,5,4,66 W Broadway,10007,40.71466,-74.01009
jzvHGkDUIQkcz8CZM_Je_g,2022-10-10 21:00:45.102581,Lupo Rosso,italian,4.5,13,43-69 11th St,11101,40.7503484,-73.9488625
ZQrmos0TEPCmMHQUreYvpw,2022-10-10 21:00:45.102600,Caffe Taci,italian,4.5,17,22 E 54th St,10022,40.7603492736816,-73.9743194580078
s3jou_L_LVYGkNHiuhjlew,2022-10-10 21:00:45.102617,Boucherie West Village,italian,4.5,2109,99 7th Ave S,10014,40.733063,-74.0028772
MTQpqHo-cCAPK7c9fd6zHw,2022-10-10 21:00:45.102642,Il Mattone,italian,4.5,100,49 Beach St,10013,40.720799,-74.0091255
FelC65I3j7s7mM2rnePN3Q,2022-10-10 21:00:45.102658,Savelli,italian,4.5,55,195 Smith St,11201,40.685074,-73.991272
nM2AdRp2iSJHi4MgvIrEBg,2022-10-10 21:00:45.102673,Oak Tuscan Truffle Lounge,italian,4.5,136,28 Greenwich Ave,10011,40.735042,-74.00002
ETgJqJHV7BW6pIr9Ox74sA,2022-10-10 21:00:45.102689,Amélie,italian,4.5,2846,22 W 8th St,10011,40.7327,-73.99766
9mawr6QwVHm5q8JRXPFjPA,2022-10-10 21:00:45.102710,San Marino Ristorante,italian,4.5,189,66 Charlton St,10014,40.72697,-74.00611
lhLk3IWpFtEkziTLnGkvVA,2022-10-10 21:00:45.102726,Ainslie,italian,4.5,4,199 Bowery,10002,40.72104,-73.99326
xbrQ2dHuQoFJmNxAuOky4A,2022-10-10 21:00:45.102741,Vic's,italian,4,542,31 Great Jones St,10012,40.72693,-73.99319
6NqCJcJvYEdvjI2e0mH0Yw,2022-10-10 21:00:45.102756,Corto,italian,4,238,507 Palisade Ave,07307,40.74597,-74.04337
v8G2Tik6eXhS63Es_4sveA,2022-10-10 21:00:45.102770,Bacàn,italian,4,25,79 Grand St,11249,40.715855693840986,-73.96414879999999
4j_n7nPaZrp6_lEInZaA8Q,2022-10-10 21:00:45.102787,Aita,italian,4,315,132 Greene Ave,11238,40.686412,-73.966629
7cOibAFiGbSsSWo27SLIgw,2022-10-10 21:00:45.102802,Tutto A Modo Mio,italian,4,374,482 Bergen Blvd,07657,40.8244151,-73.9972534
vZ5-JXlJS75k8wmPNS5U5w,2022-10-10 21:00:45.102818,Max Soha Restaurant,italian,4,427,1274 Amsterdam Ave,10027,40.811324216443104,-73.9581736
BgGz5IdV53bGb4o7opR5zg,2022-10-10 21:00:45.102834,Arturo's,italian,4,747,106 W Houston St,10012,40.7273563342024,-74.0004944801331
e6ic-qLMcaQLrAnHn2jgTw,2022-10-10 21:00:45.102851,La Pecora Bianca,italian,4,163,54 Prince St,10012,40.72346,-73.9963118
_N92SH1Zi-Hbxn_bNHFz0Q,2022-10-10 21:00:45.102866,Noodle Pudding,italian,4,602,38 Henry St,11201,40.69979,-73.99203
B0qxEXABa8-t9sY4NQRRsQ,2022-10-10 21:00:45.102888,Fumo Pizza-Bar-Pasta,italian,4,544,1600 Amsterdam Ave,10031,40.821427,-73.950638
8PyKaU-YM0HOAfxWsjcwmg,2022-10-10 21:00:45.102904,Cipriani Le Specialita,italian,4,114,120 E 42nd St,10017,40.7516113,-73.9767134
WHQpLvxkCK_BMtF8pIShnQ,2022-10-10 21:00:45.102919,Carroll Place,italian,4,1220,157 Bleecker St,10012,40.7287,-73.99971
FhXjAc6nKLf414KxYujUHw,2022-10-10 21:00:45.102934,Roberta's,italian,4,3185,261 Moore St,11206,40.70493,-73.93399
b42PcC1nCP602fiXF0a9Xg,2022-10-10 21:00:45.102949,Barbalu Restaurant,italian,4,335,225-227 Front St,10038,40.7074747,-74.0020404
V0zC3awsklyxC0GFzmaTLg,2022-10-10 21:00:45.102965,Sfilatino Italian Gourmet,italian,4,217,342 W 57th St,10019,40.7675056,-73.9851073
fH8DkdRerw5LJ7fZZHRfeA,2022-10-10 21:00:45.102980,Leuca,italian,4,397,111 N 12th St,11249,40.722121,-73.956678
F8RLZFoTxOO_GBPJNjz3kA,2022-10-10 21:00:45.102994,Mark's Off Madison,italian,4,104,41 Madison Ave,10010,40.742325,-73.986271
P2CTp4xyaNCe2AXSiLeOSQ,2022-10-10 21:00:45.103009,The Odeon,italian,4,726,145 W Broadway,10013,40.71692,-74.00792
CXxq9vtRxogVERpjfT7sbA,2022-10-10 21:00:45.103024,Mr. Capri,italian,4,7,33 W 8th St,10011,40.73306,-73.99801
gqTikTCIS01E2m20PzHoDQ,2022-10-10 21:00:45.103038,Tarallucci e Vino - East Village,italian,4,301,163 1st Ave,10003,40.72901,-73.98469
eby9pE6FzmwjoYRVzDpzew,2022-10-10 21:00:45.103053,Sette Mezzo,italian,4,82,969 Lexington Ave,10021,40.7693455389848,-73.9627933502197
505bv6h3VnN6SekdHCr8Sw,2022-10-10 21:00:45.103070,Nocello,italian,4,192,257 W 55th St,10019,40.7654190063477,-73.9833374023438
q8myw-sQtrmn0w-tKSC5cA,2022-10-10 21:00:45.103086,Cucina Alba,italian,4,14,515 W 18th St,10011,40.74498,-74.00692
kMQ0IXs5mdjDeUvpWSHgRg,2022-10-10 21:00:45.103100,Il Mulino New York - Tribeca,italian,4,47,361 Greenwich St,10013,40.71904,-74.01016
Jwb556DrGTEZryeV7XgZmQ,2022-10-10 21:00:45.103116,Bar Primi,italian,3.5,734,325 Bowery,10003,40.725639,-73.991714
4SN0mwVSzVkFTpb_aH8cgg,2022-10-10 21:00:45.103131,La Cava,italian,3.5,259,939 2nd Ave,10022,40.7548159435015,-73.9688132098044
19zArMBG2qW2k16Y0i2aBA,2022-10-10 21:00:45.103147,Obicà Mozzarella Bar Pizza e Cucina,italian,3.5,493,928 Broadway,10010,40.7400486,-73.9893018
q6ux26c-SfK-679y9lvVbw,2022-10-10 21:00:45.103164,Settepani,italian,3.5,273,196 Lenox Ave,10026,40.80435,-73.94766
penftLPo6kx6qCtbsuyLog,2022-10-10 21:00:45.103179,Petaluma,italian,3.5,262,1356 1st Ave,10021,40.7682492,-73.9553474
dWc0ijADaD6ZdclJ5LqQdg,2022-10-10 21:00:45.103193,Paola's Restaurant,italian,3.5,194,1361 Lexington Ave,10128,40.78221468700567,-73.9534524063586
i5cdbiw1KRyg4w0X44ZBwA,2022-10-10 21:00:45.103210,Mezzaluna,italian,3.5,164,1295 3rd Ave,10021,40.771125,-73.959251
h1_zWY2PVTZ5ul0RuiJ59g,2022-10-10 21:00:45.103225,Motorino,italian,3.5,276,510 Columbus Ave,10024,40.7855672,-73.9730817
4K0doiBddco60kl0W04a3Q,2022-10-10 21:00:45.103240,Il Forno Hell's Kitchen,italian,3.5,288,709  8th Ave,10036,40.7591217147251,-73.988647715231
OWAfPuMnSqn7Ru1_RNH8fw,2022-10-10 21:00:45.103256,Aria Hell's Kitchen,italian,3.5,461,369 51st St,10019,40.76413,-73.98826
BpdlX1j1-FbOC1dWIrZv4w,2022-10-10 21:00:45.103271,Bella Blu,italian,3.5,280,967 Lexington Ave,10021,40.769207,-73.962791
megxpLA5KciBJbW-jNm2RQ,2022-10-10 21:00:45.103286,Arno Ristorante,italian,3.5,247,141 W 38th St,10018,40.7534599,-73.98842
syu8oCU9h3X9hfAE_lpADw,2022-10-10 21:00:45.103301,Terra Wine Bar,italian,3.5,410,222 W Broadway,10013,40.71928,-74.00647
MT_a_Tg3ENdxqZFQyJocgQ,2022-10-10 21:00:45.103316,Joanne Trattoria,italian,3.5,580,70 W 68th St,10023,40.774527071184984,-73.98030317398896
XyICIfSun7HWtBEUFux2PQ,2022-10-10 21:00:45.103332,Bocca Di Bacco,italian,3.5,227,169 9th Ave,10011,40.7445631,-74.0030779
Business ID,insertedAtTimestamp,Name,Cuisine,Rating,Number of Reviews,Address,Zip Code,Latitude,Longitude
7jG0JgpWs4APQRflhIyhhQ,2022-10-10 21:00:46.407706,Lena’s Italian Kitchen,italian,4.5,77,1167 2nd Ave,10065,40.76228,-73.963519
b3lYtaBR1SlmH7NNDWi-vg,2022-10-10 21:00:46.407739,The Landing,italian,4.5,5,1 Pennsylvania Plz,10119,40.7511917,-73.992165
GgdR6L49eKH5drPaOYOOPQ,2022-10-10 21:00:46.407751,Pop's Pizzas,italian,4.5,122,301 West 57th St,10019,40.767086,-73.983033
oV_B5pRkcICNab7_eVoIcA,2022-10-10 21:00:46.407762,Go Nonna,italian,4.5,144,10-50 44th Dr,11101,40.74831,-73.9499
26E3j9l0XW_onVIUP-ThCw,2022-10-10 21:00:46.407772,Heidi's House By The Side Of The Road,italian,4.5,652,308 E 78th St,10075,40.772189,-73.955029
qCf1QN11Qdncpqb7PhuyVw,2022-10-10 21:00:46.407782,The Rag Trader & Bo Peep Cocktail and Highball Store,italian,4.5,674,70 W 36th St,10018,40.75059,-73.98628
qKfD10PsDKP_9B7O1_7oJQ,2022-10-10 21:00:46.407793,All'Antico Vinaio,italian,4.5,128,729 8th Ave,10036,40.7597,-73.98823
hOzPAkK92GtpGM7JOSrDYw,2022-10-10 21:00:46.407803,Amarone Ristorante,italian,4.5,175,63 Cedar Ln,07666,40.88501,-74.00896
1mp7uP6Kz_Zz4UClVfnjFQ,2022-10-10 21:00:46.407813,Testo,italian,4.5,227,141 Leonard St,11206,40.708337,-73.946965
X97pE0LRWOng1q66kjAz1g,2022-10-10 21:00:46.407823,The Independent,italian,4.5,173,147 W 40th St,10018,40.754782,-73.987377
zj8Lq1T8KIC5zwFief15jg,2022-10-10 21:00:46.407832,Prince Street Pizza,italian,4.5,4529,27 Prince St,10012,40.72308755605564,-73.99453001177575
0Tvwk0hvgaY0QVIsZGTZKQ,2022-10-10 21:00:46.407844,Antica Ristorante,italian,4.5,531,8 Stone St,10004,40.7039355145338,-74.0121731758117
X9f5HH4x3Mi7lo4ph9efvQ,2022-10-10 21:00:46.407855,Terre,italian,4.5,141,341 5th Ave,11215,40.671949831792,-73.9837719490146
0SakkRuHhECsDsZ8mRkisQ,2022-10-10 21:00:46.407865,Triangolo Restaurant,italian,4.5,517,96-01 Corona Ave,11368,40.742337,-73.867305
NGzwDLroGL4JvG81BWliNw,2022-10-10 21:00:46.407875,Armondo's Italian Restaurant,italian,4.5,67,7316 Northern Blvd,11372,40.7545652,-73.8934414
Uo7z3QSxLCxj8U44wtj2bA,2022-10-10 21:00:46.407885,Felice,italian,5,2,615 Hudson St,10014,40.73784,-74.00582
f8ipr8Wdy1_wHhw7JgNqPQ,2022-10-10 21:00:46.407895,Da Claudio,italian,4,580,21 Ann St,10038,40.71087,-74.00753
LnMRZhKtOrW1eL04FiPYTg,2022-10-10 21:00:46.407905,Senza Gluten,italian,4,657,206 Sullivan St,10012,40.7290911050589,-74.00031
Q9F2ocrmYuGt1yn3M7MOBw,2022-10-10 21:00:46.407914,Lucali,italian,4,1875,575 Henry St,11231,40.681840746711224,-74.0003327
FogLdooqSzKbmkwMGSwDiQ,2022-10-10 21:00:46.407925,Razza Pizza Artigianale,italian,4,1104,275 Grove St,07302,40.7177490485075,-74.0441924355125
zuB6VRXwj3QzTh9x-nQIRQ,2022-10-10 21:00:46.407935,Il Fiorista,italian,4,90,17 W 26th St,10010,40.744174968132405,-73.9895829
cRUuiiEW7F0uqtgSG-sKCg,2022-10-10 21:00:46.407945,Mama Maria's Restaurant,italian,4,136,307 Court St,11231,40.68356,-73.99517
HD0e3eHwv573qHZOJJitWg,2022-10-10 21:00:46.407954,Aurora Soho,italian,4,513,510 Broome St,10013,40.723543,-74.003199
8nXo6lNJlXQQIdy8Kf7J9Q,2022-10-10 21:00:46.407964,Tessa,italian,4,433,349 Amsterdam Ave,10024,40.7814059,-73.97918
urpBS_SwoSwonOtkwJ3i3A,2022-10-10 21:00:46.407973,AperiBar,italian,5,1,120 W 41st St,10036,40.75454487364027,-73.98568263216227
c6FqHGf6DL300hIYYA9XCg,2022-10-10 21:00:46.407984,Campagna Ristorante,italian,5,1,205 E 81st St,10028,40.77552,-73.95587
UjzSeETESWzramhdOdWKKQ,2022-10-10 21:00:46.407993,Tartina,italian,4,309,1034 Amsterdam Ave,10025,40.8035073,-73.9636591
y_tRUBOu3qg7lkaO2Xk1hQ,2022-10-10 21:00:46.408002,Frost Restaurant,italian,4,181,193 Frost St,11211,40.7183945,-73.9434941
ZQ8E37pWd4KBgtdcWKx5IA,2022-10-10 21:00:46.408012,Anton's,italian,4,128,570 Hudson St,10014,40.735702,-74.005761
fU22eRTnKLT2C-OFJ6eUGQ,2022-10-10 21:00:46.408021,Saraghina Pizzeria,italian,4,982,350 Lewis Ave,11233,40.6837407,-73.9353473
St8a2de1vfyCxwIySBUWbA,2022-10-10 21:00:46.408031,Graziella's,italian,4,481,232 Vanderbilt Ave,11205,40.6904563903809,-73.9696273803711
qLYloGaI-4OmLbNnr_wrGA,2022-10-10 21:00:46.408041,Castell Rooftop Lounge,italian,4,209,260 W 40th St,10018,40.75558,-73.99012
b-VbRreVGS9HQLwhYol5Xw,2022-10-10 21:00:46.408050,Don Filippo Restaurant,italian,4,187,1133 Lexington Ave,10021,40.774562,-73.958892
aI39yRQqpTd1VuKqS-lwig,2022-10-10 21:00:46.408060,Sofia,italian,4,642,36 Engle St,07631,40.894168,-73.97257
JYNBy2r3LVhJbLHE1bASfg,2022-10-10 21:00:46.408069,The Smith,italian,4,1965,1900 Broadway,10023,40.7716201269986,-73.9818377981476
7OwoncdLdUlwh6JMwSz_GQ,2022-10-10 21:00:46.408079,The Top of the Standard,italian,4,515,848 Washington St,10014,40.740828,-74.008074
uDJw4dQiySoNCBoUalW1Ww,2022-10-10 21:00:46.408089,Lincoln Ristorante,italian,4,587,142 W 65th St,10023,40.773384318631486,-73.98373135276117
k1zrPPGGMQdlHopP3MnxrQ,2022-10-10 21:00:46.408099,Storico,italian,4,212,170 Ctr Park W,10024,40.779469,-73.973975
Irw7QQBsndbB2ATXeB4pYA,2022-10-10 21:00:46.408108,Da Tommaso,italian,3.5,212,903 8th Ave,10019,40.7646068,-73.9845812
dsxgbkIKyu7x7JgpAKeZPA,2022-10-10 21:00:46.408117,Tarallucci E Vino - Upper West Side,italian,3.5,154,475 Columbus Ave,10024,40.78436,-73.9735
K9kL1ice5jlkPXcNyTus3Q,2022-10-10 21:00:46.408127,Pasta Lovers Trattoria,italian,3.5,447,142 W 49th St,10019,40.76003,-73.98291
xEdAaZTNNHRZbvzBuSjcCg,2022-10-10 21:00:46.408136,House of Lasagna,italian,3.5,181,334 Lexington Ave,10016,40.7497237,-73.9775697
0frCoaUJ_XWiz1BXiHBcwg,2022-10-10 21:00:46.408146,Ceci Italian Restaurant,italian,3.5,311,46 W 46th St,10036,40.7568271422022,-73.98112088293736
l-oj1yA5liiFEEwoi-1ELA,2022-10-10 21:00:46.408156,Bottega Restaurant,italian,3.5,156,1331 2nd Ave,10021,40.7677346,-73.9593295
-7jjZtekUluwEtXI8avVWQ,2022-10-10 21:00:46.408165,Cucina 8 1/2,italian,3.5,14,8 1/2 W 57th St,10019,40.763325643020835,-73.97452282456308
FCl5446Rovk1HRHoXpojdg,2022-10-10 21:00:46.408176,LAVO,italian,3.5,1083,39 E 58th St,10022,40.762931,-73.971433
HV5DMBmEpQ_Nu6NSekJquA,2022-10-10 21:00:46.408185,Harry's Italian,italian,3.5,272,225 Murray St,10282,40.7153762863468,-74.0139836332683
TsYrzVVtkKO4Asrk_L9stw,2022-10-10 21:00:46.408195,Parm - New York,italian,3.5,663,235 Columbus Ave,10023,40.7764333,-73.9794019
J0SZjwe0Rc-H6mzl0oByxQ,2022-10-10 21:00:46.408204,Mimi's Italian Restaurant & Piano Bar,italian,3.5,353,984 2nd Ave,10022,40.75611,-73.96728
cGqMEMQFtkB3hIGfLy2R3A,2022-10-10 21:00:46.408214,Bar Pitti,italian,3.5,1184,268 Ave Of The Americas,10014,40.729047,-74.002153
Business ID,insertedAtTimestamp,Name,Cuisine,Rating,Number of Reviews,Address,Zip Code,Latitude,Longitude
gAMETn5mltwjn2QLt6bWjw,2022-10-10 21:00:47.530368,Isabella,italian,4.5,11,110 St Marks Pl,10009,40.726966,-73.984334
y8XaPw0U9WzUj8MUaW6HmA,2022-10-10 21:00:47.530445,Mikey Pomodoro,italian,4.5,16,230 Park Ave,10169,40.754804468873886,-73.97603280212049
Jnniww9fw6-hM1M7xHOISw,2022-10-10 21:00:47.530478,Fiaschetteria Pistoia,italian,4.5,29,167 7th Ave S,10014,40.7357217052629,-74.001515265385
-vBfKWJ1v9YdJQT5XUbcBQ,2022-10-10 21:00:47.530505,Le Botaniste,italian,4.5,444,833 Lexington Ave,10065,40.7649986274526,-73.9659830279587
p4TYRKQ82N5Ntb6RPdLPMg,2022-10-10 21:00:47.530531,Bruno's Ristorante,italian,4.5,290,158-22A Crossbay Blvd,11414,40.66006127265407,-73.84037893911108
7FSuPGQTUxe-A2Km_SVTNQ,2022-10-10 21:00:47.530559,Trattoria Ora,italian,4.5,60,1801 Astoria Blvd,11102,40.7724,-73.92729
ktMtLr8mp4K7IGxUgCTs6Q,2022-10-10 21:00:47.530583,Bocca di Bacco,italian,4.5,5,635 9th Ave,10036,40.76021745303923,-73.99156281784906
_eImQkZt0MlQ0jLZH2LrTQ,2022-10-10 21:00:47.530609,GP's Restaurant,italian,4.5,153,24 69th St,07093,40.79126,-74.00167
yIFI6afTRP-tBhY6WsUOPg,2022-10-10 21:00:47.530646,Popina,italian,4.5,84,127 Columbia St,11231,40.687361962701,-74.0014251909241
eODPY5rejL6CYvN4DEqwrg,2022-10-10 21:00:47.530672,Nostro Ristorante,italian,4.5,302,710 5th Ave,11215,40.660738,-73.994285
ddyYKrNWkdc5mudrmLaTvA,2022-10-10 21:00:47.530696,Flora,italian,4.5,87,1021 8th Ave,11215,40.66458,-73.9800099
rTzojTIarMjh_X7YPliySw,2022-10-10 21:00:47.530721,Zio Luigi,italian,4.5,149,42-15 Queens Blvd,11104,40.7438632,-73.9220898
EBK0OkVMBg_n_KxAU_4DZg,2022-10-10 21:00:47.530745,Double Zero,italian,4.5,591,65 2nd Ave,10003,40.7261288,-73.9896645
3Ic4C60oSH1cV2jknUXSjQ,2022-10-10 21:00:47.530769,The Flatiron Room,italian,4.5,915,37 W 26th St,10010,40.74452,-73.99049
86StyWnuGaTuY6X2e3irOg,2022-10-10 21:00:47.530793,Alice Restaurant,italian,4,90,126 W 13th St,10011,40.73710696813969,-73.99863114881475
1XK53gaHMFQIA4VW3B6k1Q,2022-10-10 21:00:47.530819,Abaita,italian,4,100,145 E 49th St,10017,40.755541483222,-73.9718742367706
0IwdwNnbro5RLLIlaxyfpQ,2022-10-10 21:00:47.530845,The Wilson NYC,italian,4,291,132 W 27th St,10001,40.74587,-73.99265
9Zv7Xu380q2rzPSLEXX0Xg,2022-10-10 21:00:47.530878,Joe's Restaurant,italian,4,243,6611 Forest Ave,11385,40.707518,-73.903177
s1Epxy3pBMBxJH32snw17w,2022-10-10 21:00:47.530910,ALIDORO,italian,4,18,601 Lexington Ave,10022,40.75878,-73.97048
NqwwyMMXIS-JnwdDQBQT9A,2022-10-10 21:00:47.530934,Bazár Tapas Bar & Restaurant,italian,4,674,31 W 26th St,10010,40.744449,-73.990068
AAQDZdKhtcX7otmOfOF9nw,2022-10-10 21:00:47.530960,Gino's Restaurant,italian,4,779,7414 5th Ave,11209,40.63,-74.02274
eVk4F9ixl89zyUHJ1G2Aiw,2022-10-10 21:00:47.530983,Luzzos La Pizza Napoletana,italian,4,1078,15 Avenue B,10009,40.721836749997586,-73.98329136062472
W1pBIFhkjJwjTe2P7o57yg,2022-10-10 21:00:47.531009,Lilly's Cocktail and Wine,italian,4,133,50 W 72nd St,10023,40.77698,-73.9785
ZSDq6s2BFnvZEU4apxXbew,2022-10-10 21:00:47.531033,Di Palma Brothers Restaurant,italian,4,136,8728 Kennedy Blvd,07047,40.808952,-74.007419
q0HBfS9eJ9AeuaWQ3Ronqw,2022-10-10 21:00:47.531057,Joe G Pizza & Restaurant,italian,4,159,244 W 56th St,10019,40.76564,-73.9830099
eTR6nfHvQzvKX7Dcd6JrfA,2022-10-10 21:00:47.531081,District Social,italian,4,720,252 W 37th St,10018,40.7535743713379,-73.9914321899414
EaAAP-gDALDL7GxcseMjBQ,2022-10-10 21:00:47.531107,The Polo Bar,italian,4,452,1 E 55th St,10022,40.76157,-73.9744
9W_dg9fvb-z8DBye2jfGiQ,2022-10-10 21:00:47.531130,Dazie's,italian,4,98,39-41 Queens Blvd,11104,40.744194,-73.924557
pP92FmGKpH5nQfaPXMfQAg,2022-10-10 21:00:47.531154,Mollusca,italian,4,45,1 Little W 12th St,10014,40.7396062,-74.005997
bjzBkF2FFMsdkCk50xseFQ,2022-10-10 21:00:47.531177,Etcetera Etcetera,italian,4,480,352 W 44th St,10036,40.75926,-73.99115
zTK8reqKrmV7U71YVHYYjg,2022-10-10 21:00:47.531201,Armani Ristorante,italian,4,270,717 5th Ave,10022,40.7618463161798,-73.9742299834671
h8XLhVVPoYPYodZqQOjRMw,2022-10-10 21:00:47.531226,Robert,italian,4,994,2 Columbus Cir,10019,40.767394,-73.982036
PQd4M3cuSgdweWgLgZIslQ,2022-10-10 21:00:47.531249,Inatteso Pizzabar,italian,4,339,28 West St,10004,40.7056571,-74.0172056
h2HPWsBX3ABNvLHbP3KzqA,2022-10-10 21:00:47.531273,La Stanza,italian,4,51,334 B Lexington Ave,10016,40.74969,-73.9775
6AWiJUeP4FINQF48az-bkQ,2022-10-10 21:00:47.531297,Pasta Eater,italian,4,181,9 E 17th St,10003,40.73765,-73.99134
elPjOCDb8WmOpaQEI-AAOw,2022-10-10 21:00:47.531319,Forno Siciliano,italian,4,102,43-19 Ditmars Blvd,11105,40.7711294255972,-73.9031770938873
cRmRAl5HHJcysKBSrHivHA,2022-10-10 21:00:47.531345,Lamano Chelsea,italian,4,117,265 W 20th St,10011,40.7433797337789,-73.9994259551167
A5MHd0GjEb4P86UsNzUnig,2022-10-10 21:00:47.531370,SESAMO - Italian Asian Restaurant Hell's Kitchen NYC,italian,4,265,764 10th Ave,10019,40.765726,-73.990678
nHMDOIX32dGbfpuNUwsLNQ,2022-10-10 21:00:47.531395,AlMar,italian,4,478,111 Front St,11201,40.702662,-73.989177
rbIrit8gZwfyEOdEOeX7jg,2022-10-10 21:00:47.531418,Orso,italian,4,191,322 W 46th St,10036,40.759994,-73.989025
GqTgQEqwf3k5JyE7DHDhjw,2022-10-10 21:00:47.531441,Numero 28 Ristorante Pizzeria Bar,italian,4,560,176 2nd Ave,10003,40.73041,-73.98595
Tias1_QRB5L-gzoSNNhOMA,2022-10-10 21:00:47.531465,Petrarca Cucina E Vino,italian,4,201,34 White St,10013,40.7189,-74.00458
jo30o65XFWmgMJS86zFiFQ,2022-10-10 21:00:47.531488,La Mela Ristorante,italian,4,841,167 Mulberry St,10013,40.719907,-73.997294
mTnrikKr52osjrp4m6u4Vg,2022-10-10 21:00:47.531512,Bloom's Tavern,italian,4,156,208 E 58th St,10022,40.7607477090562,-73.9662868218754
uMO1DfoytP6Hw5bl_z7mDQ,2022-10-10 21:00:47.531537,Cafe Michelina,italian,3.5,232,423 Bloomfield St,07030,40.74222,-74.03009
EL5Y6BSinmUte5VW4Eh54Q,2022-10-10 21:00:47.531562,Frank,italian,3.5,771,88 2nd Ave,10003,40.7268483205383,-73.9887172038649
DF7PV0DE9z0LM4ae6XYeYg,2022-10-10 21:00:47.531587,Harry's Italian,italian,3.5,624,2 Gold St,10038,40.707555318913,-74.006898168681
oexDsgqmXc9Qe3fy3uYx7g,2022-10-10 21:00:47.531622,F & J Pine Restaurant,italian,3.5,647,1913 Bronxdale Ave,10462,40.848685,-73.862069
OmB4X44Ru8gjD6qgSNlXdg,2022-10-10 21:00:47.531648,Primola Restaurant,italian,3.5,152,1226 2nd Ave,10065,40.7638675,-73.9616489
wvn-FO-tY9_iWmA_OgMvEA,2022-10-10 21:00:47.531672,Frank's Trattoria,italian,3.5,164,371 1st Ave,10010,40.73612,-73.979473
Business ID,insertedAtTimestamp,Name,Cuisine,Rating,Number of Reviews,Address,Zip Code,Latitude,Longitude
cD_U5PL1tTl_igFPmr_T3A,2022-10-10 21:00:48.804913,C Di Palo,italian,5,27,151 Mott St,10013,40.71942,-73.99644
4wDWxcGMJEgriP-6ObJsqg,2022-10-10 21:00:48.804987,Jose Luis Mediterranean Cuisine,italian,5,146,186 Ave B,10009,40.727861,-73.979339
u_Cn0KcNrjzun774_dH2cw,2022-10-10 21:00:48.805022,Caffe Milano Restaurant,italian,4.5,7,2117 State Rt 4,07024,40.86019,-73.97685
eTneVbjPKdo4gD9HfkDGdA,2022-10-10 21:00:48.805032,Santa Panza,italian,4.5,212,1079 Broadway,11221,40.6947,-73.93068
SaYTVG7wHCMDBofHCgXPaA,2022-10-10 21:00:48.805038,Dutch Freds,italian,4.5,1876,307 W 47th St,10036,40.760835,-73.987823
x61Sizu7lqGPMGuKEGHo-Q,2022-10-10 21:00:48.805044,Senso Unico,italian,4.5,93,43-04 47th Ave,11104,40.7414137015591,-73.9216857927781
vRrVSB-LegwUwIxpkeRVtQ,2022-10-10 21:00:48.805055,Le Bernardin,italian,4.5,2758,155 W 51st St,10019,40.761557,-73.981763
QrwObD0lKQsrBlDZzgzewA,2022-10-10 21:00:48.805062,D'Antan|vino Naturale & cucina Italiana,italian,4.5,58,858 Bergen St,11238,40.6772982,-73.95882
Wcnig4807LHZyk8z08IeGw,2022-10-10 21:00:48.805068,Arthur Ave Fiasco,italian,4.5,131,2376 Arthur Ave,10458,40.854825,-73.887862
IbTOahV7PjkYwVDsGlfseA,2022-10-10 21:00:48.805074,Margari Pizza,italian,4.5,43,1072 2nd Ave,10022,40.758785,-73.965338
74zaTegd7fnS6llTesn_Dg,2022-10-10 21:00:48.805080,Fragole Ristorante,italian,4.5,402,394 Court St,11231,40.68087,-73.99688
D0LsGudLqLabXbhEPMkw6A,2022-10-10 21:00:48.805085,Aumm Aumm Pizzeria & Wine Bar,italian,4.5,392,7701 Broadway,07047,40.79789,-74.00231
wZkZmjZEJDraLJgAalnHvA,2022-10-10 21:00:48.805091,Pisticci,italian,4,974,125 La Salle St,10027,40.8141624,-73.960288
JL_p-OHtSEYVfoeLQQgqDA,2022-10-10 21:00:48.805097,Casellula,italian,4,937,401 W 52nd St,10019,40.76499,-73.98835
_0WFGjXuenlBixOlbSlGeQ,2022-10-10 21:00:48.805102,Crown Shy,italian,4,462,70 Pine St,10005,40.7063449,-74.0076944
3xOs6rJGDSi6T8f-XiTg7w,2022-10-10 21:00:48.805108,Serafina Cafe,italian,4,6,58th St 7th Ave,10019,40.76493,-73.98047
wOq-Jt26jnFf_rhF4r5D6w,2022-10-10 21:00:48.805114,Scampi,italian,4,320,30 W 18th St,10011,40.73902,-73.99358
WHX90qTIuHdWHWDY5g9COw,2022-10-10 21:00:48.805119,Apulia,italian,4,158,1319 Washington St,07030,40.75297,-74.02582
QbIwccP-ycbVxwSt-LySFw,2022-10-10 21:00:48.805125,Club Macanudo,italian,4,195,26 E 63rd St,10021,40.7659506265448,-73.9693435220428
YuzOnNDfRKixNJiaVy5Baw,2022-10-10 21:00:48.805131,Roberta's Pizza,italian,4,241,230 Park Ave,10169,40.754393,-73.976103
m9zYRZFubncaWsQFIfNo5g,2022-10-10 21:00:48.805136,Loulou Petit Bistro & Speakeasy,italian,4,401,176 8th Ave,10011,40.742627091934104,-74.00005776653397
3koQihtL0aIYzjJweMLDnw,2022-10-10 21:00:48.805152,Vini e Fritti,italian,4,48,30 E 30th St,10016,40.744888,-73.984227
dbCTJp9ENDVIquxBWONzWQ,2022-10-10 21:00:48.805158,Pomodoro,italian,4,135,518 9th Ave,10018,40.75624,-73.9939
rhCs1nF5KTNwx-4YeyoK3g,2022-10-10 21:00:48.805164,Bartolino's Fine Italian Pizza,italian,4,53,3411 Broadway,11106,40.7607386113415,-73.9223789038732
wp5BpfUi9Aa4T0Gk0bnhag,2022-10-10 21:00:48.805171,Altesi Downtown,italian,4,111,200 Spring St,10012,40.72511,-74.00333
oLA02lMIfgvbYquvXzkARw,2022-10-10 21:00:48.805177,Lillie's Victorian Establishment,italian,4,1510,249 W 49th St,10019,40.7614625,-73.9860519
OY70rYTi8Qtmb89IWRUOaQ,2022-10-10 21:00:48.805183,Ponti Rossi,italian,4,18,,11222,40.7299690246582,-73.9524078369141
U8Ljrx-w5otdMZNFhw5piw,2022-10-10 21:00:48.805189,La Villa,italian,4,572,261 5th Ave,11215,40.6743319055498,-73.9816949398812
MH08_pIRKsUSwfkVYxUE7w,2022-10-10 21:00:48.805195,Vinatería,italian,4,581,2211 Frederick Douglass Blvd,10026,40.80668,-73.95395
rJ9V5bMbP_e9ABaTkPjAbA,2022-10-10 21:00:48.805218,Coco Pazzeria,italian,4,58,1078 First Ave.,10022,40.7557292,-73.9645808
j6fSechU9HxzbnK-kjQx1Q,2022-10-10 21:00:48.805224,San Matteo Pizza and Espresso Bar,italian,4,548,1739 2nd Ave,10128,40.7804,-73.95012
MdFV5IBcX-Ni6I4Zy1EqIw,2022-10-10 21:00:48.805229,Marlow Bistro,italian,4,333,1018 Amsterdam Ave,10025,40.8028109023738,-73.9641991912535
vGS5X12NYXCl8NpynlxRuw,2022-10-10 21:00:48.805235,Oscar Wilde,italian,4,1003,45 W 27th St,10001,40.74514,-73.9900399
vLaaNR3rTeSFEZe_nn43BA,2022-10-10 21:00:48.805241,Motorino Pizzeria Napoletana,italian,3.5,261,139 Broadway,11211,40.7104799,-73.96351
CBsNd6iuSyiSMPw2pOzRHw,2022-10-10 21:00:48.805247,Bar Italia Madison,italian,3.5,160,768 Madison Ave,10065,40.76789,-73.96847
ZlwjT-jygnYqM5qDE0CuLQ,2022-10-10 21:00:48.805253,Gigino Trattoria,italian,3.5,265,323 Greenwich St,10013,40.71726,-74.01055
XcfZqLrXdABSZLViQ34VTw,2022-10-10 21:00:48.805274,Chelsea Ristorante,italian,3.5,211,108 8th Ave,10011,40.7405719,-74.0017238
KpBfFpjzsGvvqAzCasVW0g,2022-10-10 21:00:48.805281,Extra Virgin,italian,3.5,1353,259 W 4th St,10014,40.7353962496717,-74.0031888223197
I8wk0uwL6R0RhSprSlPvNw,2022-10-10 21:00:48.805288,Roman Nose,italian,3.5,789,125 Newark Ave,07302,40.7200279,-74.0433197
F-eRrDik2KK0sNjpGiNbAg,2022-10-10 21:00:48.805294,Trattoria iL Gusto Wine Bar,italian,3.5,73,625 Columbus Ave,10024,40.78923,-73.9698499
jMdziYLNYGDCegkFQ4lTQA,2022-10-10 21:00:48.805300,Serafina Tribeca,italian,3.5,202,95 W Broadway,10007,40.71566,-74.0089
mOoZZa6WIsgihc_TqyQcXw,2022-10-10 21:00:48.805305,Tarallucci E Vino -Union Square,italian,3.5,401,15 E 18th St,10003,40.7381367771909,-73.9907283558044
GVOjDvKHLoo21n3Uip1ETg,2022-10-10 21:00:48.805312,Leo's Grandevous,italian,3.5,347,200 Grand St,07030,40.73984,-74.036244
8dKgnx7EVuVVO6D40LTwjw,2022-10-10 21:00:48.805334,Vino e Grano at Eataly NYC Downtown,italian,3.5,16,101 Liberty St,10006,40.7096522,-74.0112896
-N6-sc197tFWCEf4aWyTbQ,2022-10-10 21:00:48.805351,Serafina Express,italian,4,4,30 Broad St,10004,40.706272,-74.011651
i3IK1tCkwyXRx7VU1edlMQ,2022-10-10 21:00:48.805358,Cucina Saporito ,italian,3.5,274,328 Washington St,07030,40.74109204832983,-74.030152
2F-7XCoPS1mbdy9ioqWuqw,2022-10-10 21:00:48.805364,Serafina,italian,3.5,119,2737 Broadway,10025,40.80043,-73.96828
HcO6Axp1p4udN9jhUerGXg,2022-10-10 21:00:48.805371,Spritz,italian,3.5,38,30 W 30th St,10001,40.74651424113382,-73.98800203612996
YmUKLOG4sTAShvyURuq2zw,2022-10-10 21:00:48.805377,Trattoria Bianca,italian,3.5,159,481 8th Ave,10001,40.752702,-73.993694
TcSy5I5xHKDK0Uf5_cLOew,2022-10-10 21:00:48.805383,Cotto,italian,3.5,16,112 W 25th St,10001,40.74434072498067,-73.9926957
Business ID,insertedAtTimestamp,Name,Cuisine,Rating,Number of Reviews,Address,Zip Code,Latitude,Longitude
RfxOtJ4SQmEeVX_XjFLWUQ,2022-10-10 21:00:49.909855,Otis,italian,5,456,18 Harrison Pl,11206,40.706011,-73.932598
qgY41g_eg0eNzewCXmKcaA,2022-10-10 21:00:49.909908,Lillo Cucina Italiana,italian,5,189,331 Henry St,11201,40.69023,-73.99634
HbCyzokiA19bEWUp6mga_g,2022-10-10 21:00:49.909926,bibi,italian,4.5,208,211 E 4th St,10009,40.723937,-73.983519
afbl_jCNpomzJiDBdomb6g,2022-10-10 21:00:49.909948,Oceans New York,italian,4.5,156,233 Park Ave S,10003,40.737408,-73.987887
yzOew6wou7fu51dyn6pNeQ,2022-10-10 21:00:49.909965,Macosa Trattoria,italian,4.5,39,310 Tompkins Ave,11216,40.6872641,-73.9449562
Ntia3g3RhsV9g-yHWsS0og,2022-10-10 21:00:49.909982,Fontana Tritone,italian,4.5,67,248 Fort Lee Rd,07605,40.8618199,-73.9883783
8qT2fQh1qVhCVtAODADwRw,2022-10-10 21:00:49.909999,I Gemelli Ristorante,italian,4.5,229,268 Huyler St,07606,40.87057,-74.04861
gls8Eii-vgwKScOCNQWz9w,2022-10-10 21:00:49.910057,Cafetal Social Club,italian,4.5,147,285 Mott St,10012,40.724308,-73.994457
g0ofwNfcNf5XLzdOtZYm_A,2022-10-10 21:00:49.910087,Matthew's Italian Restaurant,italian,4.5,533,1131 Bloomfield Ave,07012,40.8390353933391,-74.1616866576499
MHbxF-ZS918-ZoXKQPBEyg,2022-10-10 21:00:49.910107,Sotto Le Stelle,italian,4.5,334,4407 Queens Blvd,11104,40.743656,-73.9201782
xzN2k19JXDYjOWAhNw62aw,2022-10-10 21:00:49.910124,Adoro Lei,italian,4.5,350,287 Hudson St,10013,40.725612,-74.007916
5V4cUVikPN8ALWXBVdjltw,2022-10-10 21:00:49.910142,Mariella,italian,4.5,368,492 6th Ave,11215,40.6662419,-73.985749
8XHbZIKDQbXhyKIGiukVeQ,2022-10-10 21:00:49.910158,Boucherie Union Square,italian,4.5,1193,225 Park Ave S,10003,40.73725824850519,-73.9882252705524
ysqgdbSrezXgVwER2kQWKA,2022-10-10 21:00:49.910176,Juliana's,italian,4.5,2535,19 Old Fulton St,11201,40.70274718768062,-73.99343490196397
j8cKSxr6aQ8qTx23FLyyiA,2022-10-10 21:00:49.910244,The Wayland,italian,4.5,525,700 E 9th St,10009,40.7251,-73.9778
y9y6V8va7yt_TUnoO68z0w,2022-10-10 21:00:49.910264,Trattoria Napoli,italian,4.5,155,4525 Broadway,07087,40.77794,-74.01825
tsK6f3xyjfLTM7xtD1ZY-A,2022-10-10 21:00:49.910343,Neapolitan Express,italian,4.5,6,2109 Broadway,10023,40.77991,-73.9818
VmgvCsAP6vZ3DL1mw8ugWQ,2022-10-10 21:00:49.910363,Osteria Del Porto,italian,4.5,49,212 Front St,10038,40.70737443140159,-74.00270427364536
Xu8H24NxJJxEE-9wGp_AMA,2022-10-10 21:00:49.910381,The Brazen Tavern,italian,4.5,403,356 W 44th St,10036,40.7593269348145,-73.9913101196289
8TUVNSsXhT8t8HzdA5ojOQ,2022-10-10 21:00:49.910399,Casa Mangia,italian,5,2,50 West 57th St,10019,40.7637279,-73.976629
I0i9YzRBQn6MKIUFIHpeBQ,2022-10-10 21:00:49.910444,Park Italian Gourmet,italian,4,217,60 W 45th St,10036,40.7562054271632,-73.9814829826355
MeQU-nGaQvX12VXYOyzavQ,2022-10-10 21:00:49.910463,GRUPPO NYCThinCrust Pizza,italian,4,269,98 Ave  B,10009,40.72474,-73.98161
y6V0XdpXbSoM4rHxLy5fwg,2022-10-10 21:00:49.910479,Vallata,italian,4,30,47 E 19th St,10003,40.738070676010935,-73.98858792703702
rtivWWzG0XjUuhSrwusTgQ,2022-10-10 21:00:49.910496,Fausto,italian,4,196,348 Flatbush Ave,11238,40.67597,-73.97181
tsvElYYtUBAEdfK6plnxlg,2022-10-10 21:00:49.910512,Villa Mosconi,italian,4,212,69 Macdougal St,10012,40.72859,-74.002
ItyOhaRY5VeNAdK2liPEBg,2022-10-10 21:00:49.910527,Maria Restaurant,italian,4,144,11 Huguenot St,10801,40.9143109,-73.7736016
1ocm2YeYQJ3KveEBDcXAqg,2022-10-10 21:00:49.910543,Nonna's Pizza,italian,4,13,12 W 18th St,10011,40.73891,-73.99298
vegSCksJy6SI8WUGttLH-w,2022-10-10 21:00:49.910558,Fradei Bistro,italian,4,59,99 South Portland Ave,11217,40.686579,-73.974191
PnGSE8JGbMZKtdHi9go7Kg,2022-10-10 21:00:49.910574,The Milling Room,italian,4,528,446 Columbus Ave,10024,40.7835485472543,-73.9744088718635
olMUqifw-QlikZ9OC2aN6Q,2022-10-10 21:00:49.910591,Piccolino's,italian,4,50,552 Broadway,07002,40.66577,-74.1163399
J9xVQScnr0lYWl61_mLXMA,2022-10-10 21:00:49.910607,Lido,italian,4,1135,2168 Frederick Douglass Blvd,10026,40.8049797781916,-73.9548260014624
QV8c6gkvQfBt3QMZxCt39A,2022-10-10 21:00:49.910624,Cedric's,italian,4,19,545 W 30th St,10001,40.753190206996656,-74.00251611263141
CYYLEipRFmr73Hz6XNEzoQ,2022-10-10 21:00:49.910641,Little Italy Pizza,italian,4,574,55 W 45th St,10036,40.756482,-73.981484
7dYie1rBWQVxfcGbYYTYCw,2022-10-10 21:00:49.910656,Mondani,italian,5,1,7TH Ave,10019,40.7622838521832,-73.9810564676794
g-q-kRxdn2zh2oWOY-jKTQ,2022-10-10 21:00:49.910673,Anfora,italian,4,195,34 8th Ave,10014,40.73789,-74.00408
yH6t1JWcwkdWG4CS5KPvow,2022-10-10 21:00:49.910688,Adrienne's Pizzabar,italian,4,1796,54 Stone St,10004,40.7043362,-74.0101733
4aF0F8w7yXX9o5_QFky_ig,2022-10-10 21:00:49.910704,Celestine,italian,4,265,1 John St,11201,40.704676,-73.987975
pr_CLSHRCs2lWADPOKKxcw,2022-10-10 21:00:49.910720,Pasta Dal Cuore,italian,4,339,527 Jersey Ave,07302,40.7209453944042,-74.0465693799559
hDgpiXE5_d4Is1sJ5kUBQg,2022-10-10 21:00:49.910737,Wine 30,italian,4,817,41 E 30th St,10016,40.74492841946161,-73.9837861
Z6WOPnG83sgn65SmeyGqAw,2022-10-10 21:00:49.910753,L'Artista Italian Kitchen & Bar,italian,4,37,142 Hamilton Pl,10031,40.824373,-73.948669
TfYOx6Ql-wWdjGpgVaNcpQ,2022-10-10 21:00:49.910769,De Novo Edgewater,italian,4,288,1257 River Rd,07020,40.8268814086914,-73.973518371582
l3PV4xTIw-yJUBBGnv5u3A,2022-10-10 21:00:49.910786,Sforno NYC,italian,4,39,2393 Broadway,10024,40.789552,-73.975894
EU47dsc_vvByG3qPIMyRog,2022-10-10 21:00:49.910803,La Locanda,italian,4,105,432 Graham Ave,11211,40.7178382873535,-73.9446640014648
TybGiZNOipp1R1-u2k3ogA,2022-10-10 21:00:49.910820,Pomodoro,italian,4,219,795 Abbott Blvd,07024,40.8310841023922,-73.9826329797506
YMHxv6VFriKz1KevVXl0Cw,2022-10-10 21:00:49.910839,Gallow Green,italian,3.5,896,542 W 27th St,10001,40.7508871,-74.0041249
gjZpcE-X4zQOEqWQPelLgg,2022-10-10 21:00:49.910856,Max,italian,3.5,473,134 W Broadway,10013,40.71688,-74.00835
dMrF98GlFYIPKYY5NVZHbw,2022-10-10 21:00:49.910902,Gemma,italian,3.5,709,335 Bowery,10003,40.72609,-73.99166
efgclSozdzhy6tQ2nrAUdA,2022-10-10 21:00:49.910921,Maggiano's Little Italy,italian,3.5,566,70 Riverside Sq Mall,07601,40.90759133,-74.03096883
851S-NEGY5Z1BkXD1fI5UQ,2022-10-10 21:00:49.910939,La Bella Valentina,italian,3.5,15,319W 51st St,10019,40.763483431616194,-73.98653200219222
DE51ImtLSVPzNLikpOcocA,2022-10-10 21:00:49.910958,Vicolina,italian,3.5,45,1302 Madison Ave,10128,40.78497,-73.956
Business ID,insertedAtTimestamp,Name,Cuisine,Rating,Number of Reviews,Address,Zip Code,Latitude,Longitude
BQSPAXJcPw-7Gt2CCrH2Yw,2022-10-10 21:00:51.454504,Ita Italian Kitchen,italian,4.5,213,682 Bergen Ave,07304,40.7234748594999,-74.0703173
OAjh4nXExPlr5lQQ3OZqmg,2022-10-10 21:00:51.454571,La Casa D'la Pasta,italian,4.5,10,1792 Amsterdam Ave,10031,40.827677608969616,-73.94605957544873
1tiHa-hrvPMBJ-Fk69YWPg,2022-10-10 21:00:51.454605,Concettina Restaurant,italian,4.5,102,160-24 Willets Pt Blvd,11357,40.7806912,-73.8017165
VHkiswx23peLA9Y8rHMo7Q,2022-10-10 21:00:51.454626,Cavalino's Restaurant,italian,4.5,51,6800 Park Ave,07093,40.791303163438904,-74.0040989
mCLPr3PUwsO_zDehWeahbg,2022-10-10 21:00:51.454646,La Fiamma,italian,4.5,153,440 Harrison Ave,07029,40.74706,-74.15431
UJe9_p6NEl0kA6xHVo5PKw,2022-10-10 21:00:51.454665,Amelie,italian,4.5,269,566 Amsterdam Ave,10024,40.78875,-73.97464
dhKZRnt3DwfSu48OdPDdvA,2022-10-10 21:00:51.454683,Pasta Louise Cafe,italian,4.5,226,803 8th Ave,11215,40.666091,-73.9787254
IZ9-5z45wc3Oh_jlnX_Kcg,2022-10-10 21:00:51.454702,Giuseppina's,italian,4.5,344,691 6th Ave,11215,40.6603430973463,-73.9907741546631
yETcEIV9G7qxdwPdbivCmQ,2022-10-10 21:00:51.454731,Piccola Venezia,italian,4.5,256,4201 28th Ave,11103,40.76479,-73.9117853
00kdvS6FY0gTN5BV03tx5Q,2022-10-10 21:00:51.454750,Peak,italian,4.5,286,30 Hudson Yards,10001,40.7541644,-74.0009082
Xk3BVvlX-KXh6kJhbClMKw,2022-10-10 21:00:51.454768,Fine & Rare,italian,4.5,452,9 E 37th St,10016,40.7501754760742,-73.9821929931641
pGr5QuQU7Ur5GHLvXbT8bw,2022-10-10 21:00:51.454859,Paulie Gee's,italian,4.5,1321,60 Greenpoint Ave,11222,40.729546,-73.958568
xRiLLXjeM2wOvVTYJH2__A,2022-10-10 21:00:51.454889,Barboncino Pizza & Bar,italian,4.5,1082,781 Franklin Ave,11238,40.67206,-73.95717
CrvXivXCs4rufuDgXydTng,2022-10-10 21:00:51.454911,Jasmine's Caribbean Cuisine,italian,4.5,195,371 West 46th St,10036,40.760914,-73.990323
z-y9GDoRr1S9Ma6b2n0A4A,2022-10-10 21:00:51.454931,Enoteca Maria,italian,4,416,27 Hyatt St,10301,40.642,-74.07729
nI1UYDCYUTt23TpGxqnLKg,2022-10-10 21:00:51.454950,Buddakan,italian,4,4388,75 9th Ave,10011,40.7422762672197,-74.0048000961542
1LIptXhtDh58vAA-QPFL4w,2022-10-10 21:00:51.454970,Cask,italian,4,1435,167 E 33rd St,10016,40.745414,-73.979004
rHYwqiWTFs-oOKikxY7kag,2022-10-10 21:00:51.454988,Zia Maria-Little Italy,italian,4,331,138 Mulberry St,10013,40.71861,-73.99754
1To57srDy-cVko5QWGcogA,2022-10-10 21:00:51.455007,Sacco Pizza,italian,4,436,819 9th Ave,10019,40.7662658691406,-73.9872665405273
I6Wg1NFYAAVzM2OpsdqcXA,2022-10-10 21:00:51.455026,Grand Vin,italian,4,522,500 Grand St,07030,40.74331,-74.03517
k2sHdf6WeY22pK3hs6mtqA,2022-10-10 21:00:51.455044,Legasea Bar & Grill,italian,4,328,485 7th Ave,10018,40.75238,-73.98939
s9yeu2AneMTK4zRI96RzlQ,2022-10-10 21:00:51.455062,Margherita's,italian,4,452,740 Washington St,07030,40.74594,-74.02855
Y3xDbSHXs6apMA4JLGJZ1Q,2022-10-10 21:00:51.455080,Sac's Place,italian,4,542,3511 35th Ave,11106,40.7566495,-73.9250116
bppjJw5J8Ht6WgGp1bzPtQ,2022-10-10 21:00:51.455098,Porto Leggero,italian,4,267,185 Hudson St,07311,40.7187593,-74.0349084
nCH7SR7qXu0asO1GU3iqHw,2022-10-10 21:00:51.455117,The Press Lounge,italian,4,1160,653 11th Ave,10036,40.76452,-73.99586
wRVSvTxBp62m0UEqRUUUJQ,2022-10-10 21:00:51.455134,Dee's Wood Fired Pizza & Kitchen,italian,4,542,107-23 Metropolitan Ave,11375,40.709782,-73.8452595
ShjpJbFexK0mKEd0BFi6HA,2022-10-10 21:00:51.455154,ALIDORO,italian,4,12,383 W 31st St,10001,40.7514848,-73.9973223
P_0XSN3msfzvEDX6clRTeg,2022-10-10 21:00:51.455171,In Napoli,italian,4,79,116 Main St,07024,40.85046,-73.96635
sDajjybHSYFw8gTVbknPGA,2022-10-10 21:00:51.455189,Jack Doyle's Bar & Restaurant,italian,4,355,240 W 35th St,10001,40.752132,-73.991852
if6ZZopcH51YQ7E3y4BxaA,2022-10-10 21:00:51.455207,Tuscan Hills,italian,4,471,11060 Queens Blvd,11375,40.718921,-73.8392443
cp7rJwmk0PeVBuGRo4JJfA,2022-10-10 21:00:51.455226,Buon'Italia,italian,4,165,75 9th Ave,10011,40.7424836394226,-74.0065133965729
zOmgO8Di9Ui2bQHqSarUKg,2022-10-10 21:00:51.455245,John's of Times Square,italian,3.5,2301,260 W 44th St,10036,40.75823,-73.98836
piH-TNcmjLq2NHE4ZtbrBA,2022-10-10 21:00:51.455264,Zucchero E Pomodori,italian,3.5,223,1435 2nd Ave,10021,40.770683,-73.957319
Cnqy9w1BFXZFEaChfox0ow,2022-10-10 21:00:51.455282,Rosemary's,italian,3.5,1163,18 Greenwich Ave,10011,40.734863,-73.99974
CfFjKWynWAFLO9mUTxe4Zg,2022-10-10 21:00:51.455300,Gaetana's,italian,3.5,313,143 Christopher St,10014,40.732952570801,-74.007623322014
77EedCTJY1biWIYSzAulCQ,2022-10-10 21:00:51.455320,J.G. Melon,italian,3.5,1457,1291 3rd Ave,10021,40.77105,-73.95931
WaMNST6iZDXhiE2ks5FIgA,2022-10-10 21:00:51.455338,Little Italy Pizza,italian,3.5,444,2 E 33rd St,10016,40.74766471982,-73.9849202334881
acXWoQ2wZnpzRV-0V58YTQ,2022-10-10 21:00:51.455357,Bevacco,italian,3.5,267,60 Henry St,11201,40.699206213709665,-73.99232
HH8DIHSfBTo2HFX0fFLoew,2022-10-10 21:00:51.455376,Saint Theo's,italian,3.5,73,340 Bleecker St,10014,40.73378,-74.00468
gvul1x9MMawVzStJpfGoLA,2022-10-10 21:00:51.455394,San Pietro,italian,3.5,85,18 E 54th St,10022,40.760481,-73.974455
Mhu-5t9bi1V0tUgf-LgE3g,2022-10-10 21:00:51.455413,Haven Rooftop,italian,3.5,1046,132 W 47th St,10036,40.758413,-73.983292
x4wqaJwv0MNnsyfV8pWsCg,2022-10-10 21:00:51.455431,Bellini At Harry’s Table,italian,3.5,4,20 Riverside Blvd,10069,40.773654170283265,-73.99188599957809
XlhWNQRGoWyybfXpGBgE3Q,2022-10-10 21:00:51.455454,Il Mulino New York - Uptown,italian,3,269,37 E 60th St,10021,40.764144,-73.970195
LtBk9m1C-05nFNwD1OxcBw,2022-10-10 21:00:51.455472,Bellini,italian,3,67,33 Peck Slip,10038,40.70798,-74.00144
o7ebhiCJTSsp43ynRDB1qA,2022-10-10 21:00:51.455490,Cipriani Downtown,italian,3,392,376 W Broadway,10012,40.723567,-74.003003
kNxYppnUMQEBj7TU6burmg,2022-10-10 21:00:51.455508,Portofino Ristorante,italian,3,361,109-32 Ascan Ave,11375,40.7189866692474,-73.8398046791553
C0BDERmHvzTKYA7fghZW-A,2022-10-10 21:00:51.455528,Angelo Bellini,italian,3,153,224 E 53rd St,10022,40.757084,-73.968513
ufntl2yxDlAzPJ6G73eAcQ,2022-10-10 21:00:51.455546,Regional Restaurant,italian,3,405,2607 Broadway,10025,40.79625,-73.97094
geTFpY84Tp-nVTXflnxtDA,2022-10-10 21:00:51.455564,V & T Pizzeria & Restaurant,italian,3,383,1024 Amsterdam Ave,10025,40.80334,-73.96383
pFesQXdrv75mTDztZzOiVg,2022-10-10 21:00:51.455582,Angelo's Pizza,italian,3,271,1043 2nd Ave,10022,40.758151486516,-73.9662031084299
Business ID,insertedAtTimestamp,Name,Cuisine,Rating,Number of Reviews,Address,Zip Code,Latitude,Longitude
VP3-iMnKK_TaHDuy6mxTzA,2022-10-10 21:00:53.263301,Scott's Pizza Tours,italian,5,357,N/A,10001,40.750244140625,-73.9970245361328
WYdrEMBXzOcxffpQczHKww,2022-10-10 21:00:53.263361,Ortomare Ristorante Pizzeria,italian,4.5,115,994 Columbus Ave,10025,40.80124,-73.96161
rHYuRaSdcXjKTlOmW91nnQ,2022-10-10 21:00:53.263387,Solaro,italian,4.5,52,13 Carmine St,10014,40.730588,-74.00238
mvAjuaS1Jp6dsN4a-i_Fyw,2022-10-10 21:00:53.263407,Pocket Bar NYC,italian,4.5,307,455 W 48th St,10019,40.7633645,-73.9922985
rem9J_3x0urIH1vrFkEljA,2022-10-10 21:00:53.263427,Mamo USA,italian,4.5,5,1170 Broadway,10001,40.74511,-73.98862
U2lfZtPmI3x-bpFztPFbkA,2022-10-10 21:00:53.263446,Claud,italian,4.5,15,90 E 10th St,10003,40.73088,-73.98968
8LQLe1jvyGwrkhVMMbA9Vw,2022-10-10 21:00:53.263474,Cara Mia Italian Trattoria,italian,4.5,9,201 70th St,07093,40.7935,-74.00573
xTWpl9DgIkkr5B8h8_xUpA,2022-10-10 21:00:53.263494,Lokal 83 Mediterranean Kitchen,italian,4.5,433,473 Columbus Ave,10024,40.7842696,-73.9734941
6g8fOqVCNqp-gcFzTwmfxw,2022-10-10 21:00:53.263514,La Vita Pizza,italian,4.5,5,1670 3rd Ave,10128,40.783721,-73.950765
j7K-Pevawo8PN3r0WyEE_g,2022-10-10 21:00:53.263533,Macoletta,italian,4.5,196,28-15 24th Ave,11102,40.7732423,-73.9164153
wUoLj0v2cJ9T4mgebQqoZw,2022-10-10 21:00:53.263552,Giardino D'oro,italian,4.5,129,5 Gold St,10038,40.70758,-74.00715
9GBqbQ415CXaBa2gwHyFHQ,2022-10-10 21:00:53.263570,Sveta,italian,4.5,212,64 Carmine St,10014,40.72967,-74.00421
BGe-2gSQn9s6809HCMER5Q,2022-10-10 21:00:53.263599,VEZZO Long Island City,italian,5,2,40-05 Skillman Ave,11104,40.74741,-73.9232
2_oy2iBeT0Rg-oz4f0GF1A,2022-10-10 21:00:53.263618,The Jeffrey Craft Beer & Bites,italian,4,719,311 E 60th St,10022,40.7611,-73.963
zww7OtudkcE921UT2ThOSg,2022-10-10 21:00:53.263637,Camillo,italian,4,179,1146 Nostrand Ave,11225,40.6596,-73.95081
AYBRN8pKB8_ZfcCks17OmQ,2022-10-10 21:00:53.263656,Beebe's,italian,4,160,38-28 27th St,11101,40.754827,-73.935918
ZhjRaJkfCIVopvamUzrEsA,2022-10-10 21:00:53.263674,San Gennaro Trattoria Restaurant Bar,italian,4,207,2329 Arthur Ave,10458,40.8540465225016,-73.8889484480023
Vq6hrYq4rkZL6pUZU_N6XQ,2022-10-10 21:00:53.263696,Carpaccio,italian,4,33,1 American Dream Way,07073,40.80896,-74.07074
NBeQAgTo9hlJxgp9xbMO-w,2022-10-10 21:00:53.263714,Tufino Pizzeria Napoletana,italian,4,441,36-08 Ditmars Blvd,11105,40.773986,-73.908126
h9rymMeMUMOxQ9d93U0YDg,2022-10-10 21:00:53.263733,Baker & Co,italian,4,704,259 Bleecker St,10014,40.7313423,-74.0028996
sZZtK7rro9PK0fBH6L36Eg,2022-10-10 21:00:53.263752,Sagra Pizza Bar,italian,4,128,62 Carmine St,10014,40.72969,-74.00412
VgIiCZoUnujSMZATByk77Q,2022-10-10 21:00:53.263770,The Meatball Shop - Hell's Kitchen,italian,4,469,798 9th Ave,10019,40.7651804928198,-73.9874866666706
6KcS6hc2j4kJi2XTGxC1eg,2022-10-10 21:00:53.263791,Bodrum Mediterranean Restaurant,italian,4,465,584 Amsterdam Ave,10024,40.78935,-73.97411
9eK1PiJcK9aFEie2GwK41g,2022-10-10 21:00:53.263810,Gato Bianco,italian,5,1,632 Hudson St,10014,40.73845,-74.00537
u-MUL83NUy2gsbV80WZnAA,2022-10-10 21:00:53.263835,The Marshal,italian,4,813,628 10th Ave,10036,40.76122,-73.99396
81ATGBKh1Ke6EX_L3qHaIQ,2022-10-10 21:00:53.263854,Ferdinando's Focacceria,italian,4,211,151 Union St,11231,40.68418116575449,-74.0018677711487
GOLFLlO4bpndDkavbgrx9w,2022-10-10 21:00:53.263875,Paisano's Restaurant,italian,4,780,132 Park Ave,07070,40.8268255,-74.1061557
-neJTu9rpYM8-wjwA9WoIA,2022-10-10 21:00:53.263893,Lex Restaurant,italian,4,115,1370 Lexington Ave,10128,40.7825297,-73.9535605
t3WXZ8U6espLzY5YQ1Ocsg,2022-10-10 21:00:53.263912,Cello Wine & Cocktail Bistro,italian,4,206,226 E 53rd St,10022,40.7570686,-73.9684187
qMHzIYzoHYe55I7L65iEQw,2022-10-10 21:00:53.263931,Foragers Table,italian,4,576,233 8th Ave,10011,40.744541,-73.9990926
m5Whyz8O8jM4DrE808h71g,2022-10-10 21:00:53.263949,Darbar Grill,italian,4,567,157 E 55th St,10022,40.759357,-73.968826
k7j93YVxpU2TJeQ8fjlhVw,2022-10-10 21:00:53.263968,Villa Amalfi,italian,4,58,793 Palisade Ave,07010,40.8295,-73.98032
H1YIowHp7SMbpVoOtSEIJg,2022-10-10 21:00:53.263986,2 Bros Pizza,italian,4,441,31 W 46th St,10036,40.7567825317383,-73.9802169799805
B-Bssflz-SxmH0fVSat8tg,2022-10-10 21:00:53.264006,The Perry Club,italian,4,30,157 7th Ave S,10014,40.73562,-74.00144
DLRbxg74oWNPQJdbSkTDxQ,2022-10-10 21:00:53.264024,Suprema Provisions,italian,4,333,305 Bleecker St,10014,40.7326925,-74.0036155
fwH7iD4-xY2ABrlZznP8CA,2022-10-10 21:00:53.264042,Quality Eats,italian,4,391,1496 2nd Ave,10075,40.77246055407929,-73.95538748145974
ojL777xhCtDrOrH1ThIBgg,2022-10-10 21:00:53.264062,Pizza Park,italian,3.5,333,1233 1st Ave,10021,40.764380718592,-73.958705663681
3xd4L_TdfdhuCjAzJecs6A,2022-10-10 21:00:53.264082,Michaelangelo's Little Italy,italian,3.5,250,2477 Arthur Ave,10458,40.8573321267268,-73.8862630999689
7rc7e_mw5DefMCSBsuZYhg,2022-10-10 21:00:53.264103,Don Giovanni Ristorante,italian,3.5,561,358 W 44th St,10036,40.75955,-73.9915
1hZo1zfvLVN687_D7latyg,2022-10-10 21:00:53.264122,Daniela Trattoria,italian,3.5,535,728 8th Ave,10036,40.75927,-73.98809
cUNFGQB2I3GI_vqy2OBW3Q,2022-10-10 21:00:53.264140,Lattanzi Restaurant,italian,3.5,294,361 W 46th St,10036,40.7607901227454,-73.9901704731246
mmJ72_R1HvpSz6a3l7jYnA,2022-10-10 21:00:53.264160,Tiramisu,italian,3.5,204,1410 3rd Ave,10028,40.7751535105423,-73.9569666
zjvQtimzYg9OHVROeOuQFg,2022-10-10 21:00:53.264179,Best Pizza On 1st Avenue,italian,3.5,146,1038 1st Ave,10022,40.7579966,-73.9629148
DKLbMLQHvggfIKw2jj6rnA,2022-10-10 21:00:53.264198,Felice 83,italian,3.5,309,1593 1st Ave,10028,40.775049,-73.951078
lTa_the-LGQxdwKhwfwVyw,2022-10-10 21:00:53.264216,La Nonna,italian,3.5,297,134 Mulberry St,10013,40.718546780939,-73.9975856825191
nvisU3jrXgA7xL5nEt3iXA,2022-10-10 21:00:53.264236,Don Giovanni Ristorante,italian,3.5,357,214 10th Ave,10011,40.7472138000271,-74.0042828600478
Wg4Mu4YXL_1NSVF9LAH_9w,2022-10-10 21:00:53.264256,Bartolino's Restaurant,italian,3.5,205,34-15 Broadway,11106,40.7607576,-73.92235540556803
SbTzGaRAxAf_W_b30598jQ,2022-10-10 21:00:53.264276,Bella Mia,italian,3.5,19,787 8th Ave,10036,40.7610699,-73.98737
hFeGYPt9M5dd_KXG9a_ePQ,2022-10-10 21:00:53.264294,Patsy’s Pizzeria,italian,3.5,447,206 E 60th St,10022,40.76177,-73.96575
GOEBF8Odq1SPdz4PWJx6PQ,2022-10-10 21:00:53.264314,Serafina Always,italian,3,378,33 E 61st St,10065,40.764789,-73.969779
Business ID,insertedAtTimestamp,Name,Cuisine,Rating,Number of Reviews,Address,Zip Code,Latitude,Longitude
N-gJbfzl24IbMIuqvDBE-Q,2022-10-10 21:00:54.752863,Bella Trattoria E Pizzeria ,italian,5,8,6717 Bergenline Ave,07093,40.79447,-74.0123
qoBcWhGwlcUsKIQ2nB22vA,2022-10-10 21:00:54.752923,Lombardo's of Bay Ridge,italian,5,183,279 71st St,11209,40.634741,-74.0284259
phB6HvQyOUEZmvgg9KzRmA,2022-10-10 21:00:54.752941,Da Franco & Tony Ristorante,italian,4.5,120,2815 Middletown Rd,10461,40.8436584,-73.8360596
PerCtK0A27ku-cmBVMh5tw,2022-10-10 21:00:54.752960,Porto Salvo,italian,4.5,181,424 E 161st St,10451,40.82368,-73.91294
JP5DnHbYWBxGRjy9_16TdQ,2022-10-10 21:00:54.752976,Bosino,italian,4.5,60,201 W 103rd St,10025,40.798755,-73.9673646
dL_kiFyyFM-3_JYRoEzchA,2022-10-10 21:00:54.752991,Nonnas 1977,italian,4.5,165,41-02 Astoria Blvd,11103,40.76851,-73.90997
C9BjYm4WyoQFPQUHmBErDg,2022-10-10 21:00:54.753006,Bird Dog,italian,4.5,99,525 Hudson St,10014,40.733983,-74.006549
NPnWsPxOpG91GHx74S27Uw,2022-10-10 21:00:54.753021,Sottocasa Pizzeria - Harlem,italian,4.5,327,227 Lenox Ave,10027,40.8055499,-73.94746
UB1mGugr1pvgUUP1eTNXrg,2022-10-10 21:00:54.753036,Stone Bridge Pizza & Salad,italian,4.5,308,16 E 41st St,10017,40.75225,-73.98061
7oNuDMESKejMgJFlkQwxmQ,2022-10-10 21:00:54.753052,Avena Downtown,italian,4.5,105,260 6th Ave,10014,40.7289,-74.00216
EHINHIbLklEUShuANKjGgw,2022-10-10 21:00:54.753067,Tomiño Taberna Gallega,italian,4.5,371,192 Grand St,10013,40.7192978908919,-73.9969160361937
blaTQKod-nz94F3Fm_ZoYQ,2022-10-10 21:00:54.753086,Osteria Laura,italian,4.5,48,1890 Adam Clayton Powell Jr Blvd,10026,40.80251,-73.95355
7vq2CNM69sdrXrtbT2-qEQ,2022-10-10 21:00:54.753101,Campania Coal Fired Pizza,italian,4,652,9824 4th Ave,11209,40.6136093139648,-74.033332824707
WqjqHMozyW42XLTtLnKGag,2022-10-10 21:00:54.753118,La Pulperia Hell's Kitchen,italian,4,857,623 9th Ave,10036,40.7599217,-73.991841
OWk0cK23jsgDErVl7zOd7Q,2022-10-10 21:00:54.753133,Paddy Reilly's Music Bar,italian,4,100,519 2nd Ave,10016,40.74166,-73.97851
jz9QXgIAW3192pn8bzg9bw,2022-10-10 21:00:54.753148,Bar Feroce,italian,4,24,105 W 28th St,10001,40.7464216153208,-73.99052511957399
XWNamjD2mSpk56B6z1HT9w,2022-10-10 21:00:54.753164,Laico's,italian,4,253,67 Terhune Ave,07305,40.703212,-74.095046
hwR54p9AWwrOATd41l351w,2022-10-10 21:00:54.753179,Alberto Restaurant,italian,4,247,9831 Metropolitan Ave,11375,40.711109161377,-73.8534774780273
3Sm7_Nhnj12r5RhianvrbQ,2022-10-10 21:00:54.753195,Kiss My Slice,italian,4,256,274 W 40th St,10018,40.75576,-73.99052
srhEv1OqoK9W5JRdiMWDyw,2022-10-10 21:00:54.753217,Ayza Wine & Chocolate Bar,italian,4,2039,11 W 31st St,10001,40.7471774721074,-73.987011312828
qH90aP7-LCYFwVs5Oz-QbQ,2022-10-10 21:00:54.753234,Spritz Times Square,italian,4,13,250 W 47th St,10036,40.75993,-73.98655
kH5RMIaFmd-bekCIhOcqDw,2022-10-10 21:00:54.753248,Landmark Tavern,italian,4,331,626 11th Ave,10036,40.763156,-73.996253
gosjtZsjmPTIBY4eB4qD2Q,2022-10-10 21:00:54.753263,Bravest,italian,4,223,700 2nd Ave,10016,40.747115,-73.973961
BXiX5-ce4NNxsw7eUDZeOg,2022-10-10 21:00:54.753277,Giovanni's Brooklyn Eats,italian,4,534,1657 8th Ave,11215,40.6601105,-73.9835205
kmcgUxWhwlbmC-FAMTEF2g,2022-10-10 21:00:54.753293,Cafe d’Alsace,italian,4,1315,1703 2nd Ave,10128,40.77942,-73.95084
F0MuzanyO6YEen8VtP5LOg,2022-10-10 21:00:54.753308,Pennsylvania 6 NYC,italian,4,586,132 W 31st St,10001,40.7483655239542,-73.9907944748688
